City_ID,City,Country,Date,Lat,Lng,Max Temp,Humidity,Cloudiness,Wind Speed,Current Description,Rain Inches (last 3 hrs),Snow Inches (last 3 hrs)
0,East London,ZA,2020-05-10 16:20:49,-33.02,27.91,76.14,41,0,5.79,clear sky,0.0,0.0
1,Kaitangata,NZ,2020-05-10 16:21:53,-46.28,169.85,46.99,86,27,2.77,scattered clouds,0.0,0.0
2,Sao Joao Da Barra,BR,2020-05-10 16:18:13,-21.64,-41.05,78.8,44,0,13.87,clear sky,0.0,0.0
3,Chicama,PE,2020-05-10 16:25:27,-7.84,-79.15,69.8,77,82,13.87,broken clouds,0.0,0.0
4,Mataura,NZ,2020-05-10 16:25:27,-46.19,168.86,44.58,91,19,3.27,few clouds,0.0,0.0
5,Bethel,US,2020-05-10 16:25:27,41.37,-73.41,55.99,34,1,24.16,clear sky,0.0,0.0
6,Saint George,US,2020-05-10 16:20:51,37.1,-113.58,78.01,21,1,3.36,clear sky,0.0,0.0
7,Barrow,US,2020-05-10 16:22:00,71.29,-156.79,23.0,85,20,6.93,mist,0.0,0.0
8,Yellowknife,CA,2020-05-10 16:25:01,62.46,-114.35,28.4,58,20,8.05,few clouds,0.0,0.0
9,Busselton,AU,2020-05-10 16:25:28,-33.65,115.33,48.0,67,99,2.08,overcast clouds,0.0,0.0
10,Souillac,MU,2020-05-10 16:25:28,-20.52,57.52,73.4,69,40,12.75,scattered clouds,0.0,0.0
11,Puerto Ayora,EC,2020-05-10 16:25:28,-0.74,-90.35,82.4,74,20,18.34,few clouds,0.0,0.0
12,Vilhena,BR,2020-05-10 16:21:55,-12.74,-60.15,82.4,65,75,8.05,broken clouds,0.0,0.0
13,Westport,US,2020-05-10 16:21:59,41.14,-73.36,55.99,46,1,19.46,clear sky,0.0,0.0
14,Adrar,MR,2020-05-10 16:25:29,20.5,-10.07,99.52,9,7,13.98,clear sky,0.0,0.0
15,Kodiak,US,2020-05-10 16:17:31,57.79,-152.41,42.8,87,90,3.36,overcast clouds,0.0,0.0
16,Miyako,JP,2020-05-10 16:21:55,39.64,141.95,59.32,77,9,8.34,clear sky,0.0,0.0
17,Portland,US,2020-05-10 16:20:44,45.52,-122.68,69.01,55,75,6.93,broken clouds,0.0,0.0
18,Vila Franca Do Campo,PT,2020-05-10 16:18:24,37.72,-25.43,62.6,72,20,19.46,few clouds,0.0,0.0
19,Norman Wells,CA,2020-05-10 16:21:56,65.28,-126.83,44.6,56,5,16.11,clear sky,0.0,0.0
20,Pacific Grove,US,2020-05-10 16:21:56,36.62,-121.92,57.2,71,90,2.53,haze,0.0,0.0
21,Punta Arenas,CL,2020-05-10 16:20:52,-53.15,-70.92,44.6,93,90,14.99,overcast clouds,0.0,0.0
22,Bayanday,RU,2020-05-10 16:21:56,53.07,105.51,51.51,74,96,8.88,overcast clouds,0.0,0.0
23,Rikitea,PF,2020-05-10 16:16:55,-23.12,-134.97,75.0,73,1,10.49,clear sky,0.0,0.0
24,Codrington,AU,2020-05-10 16:17:00,-38.27,141.97,46.54,92,2,9.35,clear sky,0.0,0.0
25,Namibe,AO,2020-05-10 16:21:57,-15.2,12.15,86.0,66,20,11.41,few clouds,0.0,0.0
26,Jaca,ES,2020-05-10 16:21:57,42.57,-0.55,55.0,94,100,1.01,moderate rain,0.0,0.0
27,Kapaa,US,2020-05-10 16:21:58,22.08,-159.32,73.4,73,40,12.75,scattered clouds,0.0,0.0
28,Pevek,RU,2020-05-10 16:17:34,69.7,170.31,34.12,87,68,14.07,broken clouds,0.0,0.0
29,Te Anau,NZ,2020-05-10 16:21:58,-45.42,167.72,48.92,84,100,3.09,overcast clouds,0.0,0.0
30,Dubbo,AU,2020-05-10 16:21:58,-32.25,148.62,37.4,86,10,4.7,clear sky,0.0,0.0
31,Saint-Francois,FR,2020-05-10 16:21:58,46.42,3.91,68.0,56,100,13.87,light rain,0.0,0.0
32,Rocha,UY,2020-05-10 16:21:59,-34.48,-54.33,69.55,60,36,13.67,scattered clouds,0.0,0.0
33,Viedma,AR,2020-05-10 16:17:01,-40.81,-63.0,65.73,29,0,23.53,clear sky,0.0,0.0
34,Riyadh,SA,2020-05-10 16:18:53,24.69,46.72,95.0,19,75,14.99,dust,0.0,0.0
35,Provideniya,RU,2020-05-10 16:21:59,64.38,-173.3,34.16,95,100,8.46,light rain,0.0,0.0
36,Miraflores,MX,2020-05-10 16:21:59,19.22,-98.81,66.2,59,5,3.74,clear sky,0.0,0.0
37,Vardo,NO,2020-05-10 16:21:59,70.37,31.11,37.4,59,65,8.05,broken clouds,0.0,0.0
38,Lorengau,PG,2020-05-10 16:21:59,-2.02,147.27,83.3,80,41,7.2,scattered clouds,0.0,0.0
39,Bengkulu,ID,2020-05-10 16:22:00,-3.8,102.27,77.22,90,100,3.76,moderate rain,0.0,0.0
40,Ostrovnoy,RU,2020-05-10 16:22:00,68.05,39.51,34.47,89,9,3.02,clear sky,0.0,0.0
41,Jamestown,US,2020-05-10 16:17:12,42.1,-79.24,54.0,37,90,16.11,overcast clouds,0.0,0.0
42,Torbay,CA,2020-05-10 16:22:00,47.67,-52.73,43.0,48,75,41.38,broken clouds,0.0,0.0
43,Saint-Philippe,RE,2020-05-10 16:22:00,-21.36,55.77,71.6,60,75,6.93,broken clouds,0.0,0.0
44,Chokurdakh,RU,2020-05-10 16:22:01,70.63,147.92,27.84,97,100,14.18,overcast clouds,0.0,0.0
45,Makakilo City,US,2020-05-10 16:17:06,21.35,-158.09,71.6,93,1,6.93,clear sky,0.0,0.0
46,Kemijarvi,FI,2020-05-10 16:22:01,66.71,27.43,37.35,96,100,6.98,moderate rain,0.0,0.0
47,Khatanga,RU,2020-05-10 16:22:01,71.97,102.5,27.43,97,100,8.1,overcast clouds,0.0,0.0
48,Bluff,NZ,2020-05-10 16:20:54,-46.6,168.33,50.74,83,13,9.51,few clouds,0.0,0.0
49,Narsaq,GL,2020-05-10 16:22:01,60.92,-46.05,60.8,26,75,10.29,broken clouds,0.0,0.0
50,Hobart,AU,2020-05-10 16:22:01,-42.88,147.33,48.99,76,43,5.82,scattered clouds,0.0,0.0
51,Hamilton,US,2020-05-10 16:22:02,39.18,-84.53,57.0,50,90,17.22,light rain,0.0,0.0
52,Georgetown,MY,2020-05-10 16:19:11,5.41,100.34,77.0,100,40,4.7,thunderstorm with light rain,0.0,0.0
53,Klaksvik,FO,2020-05-10 16:22:02,62.23,-6.59,35.6,59,100,13.87,light rain,0.0,0.0
54,Carnarvon,AU,2020-05-10 16:17:03,-24.87,113.63,73.04,60,82,10.31,broken clouds,0.0,0.0
55,Zagra,RO,2020-05-10 16:22:02,47.33,24.28,66.67,62,26,3.02,scattered clouds,0.0,0.0
56,Port Alfred,ZA,2020-05-10 16:22:03,-33.59,26.89,73.0,59,17,4.05,few clouds,0.0,0.0
57,Mount Gambier,AU,2020-05-10 16:22:03,-37.83,140.77,44.6,100,40,8.05,scattered clouds,0.0,0.0
58,Oksfjord,NO,2020-05-10 16:22:03,70.24,22.35,37.4,74,90,9.17,shower rain,0.0,0.0
59,Sindor,RU,2020-05-10 16:22:03,62.86,51.89,50.34,90,49,5.77,scattered clouds,0.0,0.0
60,Xuchang,CN,2020-05-10 16:22:03,34.02,113.82,71.6,49,29,4.47,scattered clouds,0.0,0.0
61,Cabo San Lucas,MX,2020-05-10 16:22:04,22.89,-109.91,82.4,44,20,4.7,few clouds,0.0,0.0
62,Lipin Bor,RU,2020-05-10 16:22:04,60.26,37.98,50.25,58,0,5.84,clear sky,0.0,0.0
63,Albany,US,2020-05-10 16:22:04,42.6,-73.97,51.8,37,75,13.87,broken clouds,0.0,0.0
64,Vaini,TO,2020-05-10 16:17:09,-21.2,-175.2,73.4,100,75,15.1,broken clouds,0.0,0.0
65,Ancud,CL,2020-05-10 16:17:56,-41.87,-73.82,57.99,76,75,10.29,broken clouds,0.0,0.0
66,Srednekolymsk,RU,2020-05-10 16:22:04,67.45,153.68,29.39,98,99,14.61,overcast clouds,0.0,0.0
67,Kawalu,ID,2020-05-10 16:22:04,-7.38,108.21,74.41,91,100,0.78,light rain,0.0,0.0
68,Nome,US,2020-05-10 16:17:33,64.5,-165.41,37.99,80,40,8.39,scattered clouds,0.0,0.0
69,Laguna,US,2020-05-10 16:22:05,38.42,-121.42,62.01,72,1,10.29,clear sky,0.0,0.0
70,Corrales,US,2020-05-10 16:22:05,35.24,-106.61,62.6,29,1,5.82,clear sky,0.0,0.0
71,Necochea,AR,2020-05-10 16:22:05,-38.55,-58.74,66.0,63,48,1.01,scattered clouds,0.0,0.0
72,Ereymentau,KZ,2020-05-10 16:22:05,51.62,73.1,65.3,37,26,7.78,scattered clouds,0.0,0.0
73,Gobabis,NA,2020-05-10 16:22:05,-22.45,18.97,73.4,25,0,19.46,clear sky,0.0,0.0
74,Atuona,PF,2020-05-10 16:20:49,-9.8,-139.03,81.36,76,41,18.52,light rain,0.0,0.0
75,Flinders,AU,2020-05-10 16:18:36,-34.58,150.86,48.0,70,4,1.01,clear sky,0.0,0.0
76,Dumai,ID,2020-05-10 16:22:06,1.68,101.45,78.78,95,100,2.89,light rain,0.0,0.0
77,Shakawe,BW,2020-05-10 16:22:06,-18.37,21.85,73.0,31,66,5.32,broken clouds,0.0,0.0
78,Bredasdorp,ZA,2020-05-10 16:20:53,-34.53,20.04,60.8,87,0,5.82,clear sky,0.0,0.0
79,Rantauprapat,ID,2020-05-10 16:22:06,2.1,99.83,76.3,94,100,2.26,light rain,0.0,0.0
80,Castro,BR,2020-05-10 16:22:07,-24.79,-50.01,70.36,53,0,8.41,clear sky,0.0,0.0
81,Saldanha,ZA,2020-05-10 16:20:54,-33.01,17.94,80.6,30,0,5.82,clear sky,0.0,0.0
82,Sapanta,RO,2020-05-10 16:22:07,47.97,23.7,73.99,49,36,4.7,scattered clouds,0.0,0.0
83,Hilo,US,2020-05-10 16:22:07,19.73,-155.09,66.2,68,1,5.82,clear sky,0.0,0.0
84,Cape Town,ZA,2020-05-10 16:20:04,-33.93,18.42,68.0,87,20,5.82,few clouds,0.0,0.0
85,Nisia Floresta,BR,2020-05-10 16:22:07,-6.09,-35.21,86.0,66,20,16.11,few clouds,0.0,0.0
86,Hasaki,JP,2020-05-10 16:22:07,35.73,140.83,71.6,94,75,12.75,light intensity shower rain,0.0,0.0
87,Avarua,CK,2020-05-10 16:17:09,-21.21,-159.78,78.8,83,37,16.11,scattered clouds,0.0,0.0
88,Nagothana,IN,2020-05-10 16:22:08,18.53,73.13,86.0,74,0,5.82,haze,0.0,0.0
89,Shakhtinsk,KZ,2020-05-10 16:22:08,49.71,72.59,60.8,72,69,8.95,broken clouds,0.0,0.0
90,Beringovskiy,RU,2020-05-10 16:22:08,63.05,179.32,33.08,95,79,18.45,broken clouds,0.0,0.0
91,Aitape,PG,2020-05-10 16:22:08,-3.14,142.35,80.04,86,82,4.52,light rain,0.0,0.0
92,Lompoc,US,2020-05-10 16:17:29,34.64,-120.46,57.0,100,90,4.68,overcast clouds,0.0,0.0
93,Cayenne,GF,2020-05-10 16:17:52,4.93,-52.33,86.0,70,65,8.05,moderate rain,0.0,0.0
94,Ushuaia,AR,2020-05-10 16:20:05,-54.8,-68.3,42.8,87,95,1.74,overcast clouds,0.0,0.0
95,Saint-Louis,SN,2020-05-10 16:20:17,16.33,-15.0,109.4,14,66,2.24,broken clouds,0.0,0.0
96,Kavieng,PG,2020-05-10 16:22:09,-2.57,150.8,83.71,79,96,9.93,overcast clouds,0.0,0.0
97,Mahebourg,MU,2020-05-10 16:22:09,-20.41,57.7,73.4,69,40,12.75,scattered clouds,0.0,0.0
98,Ust-Kuyga,RU,2020-05-10 16:18:43,70.02,135.6,29.03,97,91,8.39,overcast clouds,0.0,0.0
99,Hithadhoo,MV,2020-05-10 16:22:09,-0.6,73.08,85.46,77,67,11.41,light rain,0.0,0.0
100,Tooele,US,2020-05-10 16:22:10,40.53,-112.3,66.0,31,1,4.7,clear sky,0.0,0.0
101,Sobolevo,RU,2020-05-10 16:22:10,54.43,31.9,58.05,68,30,6.33,scattered clouds,0.0,0.0
102,Maragogi,BR,2020-05-10 16:18:55,-9.01,-35.22,82.72,72,37,9.62,scattered clouds,0.0,0.0
103,Kenai,US,2020-05-10 16:22:10,60.55,-151.26,48.2,61,90,8.84,overcast clouds,0.0,0.0
104,Nevelsk,RU,2020-05-10 16:22:10,46.67,141.86,44.6,87,40,8.95,light intensity shower rain,0.0,0.0
105,Kruisfontein,ZA,2020-05-10 16:22:11,-34.0,24.73,66.54,36,0,0.83,clear sky,0.0,0.0
106,Loksa,EE,2020-05-10 16:22:11,59.58,25.72,64.4,27,82,14.99,broken clouds,0.0,0.0
107,Ipixuna,BR,2020-05-10 16:22:12,-1.76,-48.8,84.2,79,75,6.93,broken clouds,0.0,0.0
108,Longyearbyen,SJ,2020-05-10 16:22:12,78.22,15.64,19.4,57,40,9.17,scattered clouds,0.0,0.0
109,Cidreira,BR,2020-05-10 16:22:12,-30.18,-50.21,73.27,50,0,4.09,clear sky,0.0,0.0
110,Chilca,PE,2020-05-10 16:22:12,-12.52,-76.74,75.2,60,32,14.99,scattered clouds,0.0,0.0
111,Namatanai,PG,2020-05-10 16:22:12,-3.67,152.43,80.74,78,100,6.42,overcast clouds,0.0,0.0
112,Touros,BR,2020-05-10 16:22:12,-5.2,-35.46,86.0,66,20,16.11,few clouds,0.0,0.0
113,Port Keats,AU,2020-05-10 16:22:12,-14.25,129.55,81.93,38,95,8.59,overcast clouds,0.0,0.0
114,Eldorado,BR,2020-05-10 16:22:13,-23.79,-54.28,80.96,49,0,11.5,clear sky,0.0,0.0
115,Umm Lajj,SA,2020-05-10 16:22:13,25.02,37.27,78.26,61,24,11.92,few clouds,0.0,0.0
116,Ribeira Grande,PT,2020-05-10 16:22:13,38.52,-28.7,64.4,59,20,20.8,few clouds,0.0,0.0
117,Samdari,IN,2020-05-10 16:22:13,25.82,72.58,96.39,16,0,11.9,clear sky,0.0,0.0
118,Plettenberg Bay,ZA,2020-05-10 16:22:13,-34.05,23.37,69.35,42,0,1.95,clear sky,0.0,0.0
119,Upernavik,GL,2020-05-10 16:22:13,72.79,-56.15,16.88,90,62,12.19,broken clouds,0.0,0.0
120,Beaverlodge,CA,2020-05-10 16:22:14,55.22,-119.44,41.0,65,75,11.41,broken clouds,0.0,0.0
121,Margate,GB,2020-05-10 16:22:14,51.38,1.39,51.01,82,100,34.09,overcast clouds,0.0,0.0
122,Ewa Beach,US,2020-05-10 16:22:14,21.32,-158.01,71.6,73,1,4.7,clear sky,0.0,0.0
123,Talnakh,RU,2020-05-10 16:22:14,69.49,88.4,33.8,86,75,11.18,broken clouds,0.0,0.0
124,Pangnirtung,CA,2020-05-10 16:22:14,66.15,-65.71,24.8,73,90,13.87,light snow,0.0,0.0
125,Bathsheba,BB,2020-05-10 16:22:14,13.22,-59.52,86.0,58,20,23.04,few clouds,0.0,0.0
126,Zhob,PK,2020-05-10 16:22:15,31.34,69.45,80.26,26,0,10.78,clear sky,0.0,0.0
127,Khuldabad,IN,2020-05-10 16:22:15,20.05,75.18,73.4,83,75,11.41,broken clouds,0.0,0.0
128,Ilulissat,GL,2020-05-10 16:22:15,69.22,-51.1,32.0,91,74,11.41,broken clouds,0.0,0.0
129,Chara,RU,2020-05-10 16:22:15,56.91,118.26,35.26,88,100,3.53,snow,0.0,0.0
130,Key Largo,US,2020-05-10 16:22:15,25.09,-80.45,73.99,67,100,13.0,moderate rain,0.0,0.0
131,Hohhot,CN,2020-05-10 16:22:15,40.81,111.65,42.8,30,27,2.24,scattered clouds,0.0,0.0
132,Yumen,CN,2020-05-10 16:22:16,40.28,97.2,50.67,42,0,14.2,clear sky,0.0,0.0
133,Turangi,NZ,2020-05-10 16:22:16,-39.0,175.93,42.76,89,14,2.82,few clouds,0.0,0.0
134,Brigantine,US,2020-05-10 16:22:16,39.41,-74.36,60.8,25,1,13.87,clear sky,0.0,0.0
135,Vestmanna,FO,2020-05-10 16:22:16,62.16,-7.17,35.6,59,100,13.87,light rain,0.0,0.0
136,Lasa,IT,2020-05-10 16:22:16,46.62,10.7,53.6,76,40,8.05,scattered clouds,0.0,0.0
137,San Juan,AR,2020-05-10 16:17:57,-31.54,-68.54,75.13,25,35,17.36,scattered clouds,0.0,0.0
138,Muravlenko,RU,2020-05-10 16:22:17,63.79,74.52,65.14,48,84,14.67,broken clouds,0.0,0.0
139,Maniitsoq,GL,2020-05-10 16:22:17,65.42,-52.9,39.18,77,100,10.94,light rain,0.0,0.0
140,Kharan,PK,2020-05-10 16:22:17,28.58,65.42,92.61,10,13,8.01,few clouds,0.0,0.0
141,Oum Hadjer,TD,2020-05-10 16:22:17,13.3,19.7,104.34,7,0,5.7,clear sky,0.0,0.0
142,Ponferrada,ES,2020-05-10 16:21:50,42.55,-6.6,59.0,60,80,1.99,light rain,0.0,0.0
143,Butaritari,KI,2020-05-10 16:22:18,3.07,172.79,82.62,78,18,7.99,few clouds,0.0,0.0
144,Menomonie,US,2020-05-10 16:22:18,44.88,-91.92,39.99,60,90,14.99,overcast clouds,0.0,0.0
145,Solnechnyy,RU,2020-05-10 16:22:18,50.72,136.63,43.88,84,100,7.02,overcast clouds,0.0,0.0
146,Carauari,BR,2020-05-10 16:22:18,-4.88,-66.9,89.4,55,57,2.17,light rain,0.0,0.0
147,Svetlaya,RU,2020-05-10 16:22:18,46.54,138.33,42.69,89,86,4.9,overcast clouds,0.0,0.0
148,Shache,CN,2020-05-10 16:22:18,38.42,77.24,65.98,50,95,17.58,light rain,0.0,0.0
149,Fortuna,US,2020-05-10 16:18:11,40.6,-124.16,57.0,87,90,3.36,overcast clouds,0.0,0.0
150,Chapais,CA,2020-05-10 16:22:19,49.78,-74.85,32.0,96,90,18.34,light snow,0.0,0.0
151,Pitkyaranta,RU,2020-05-10 16:22:19,61.57,31.48,44.04,61,26,5.12,scattered clouds,0.0,0.0
152,Qaqortoq,GL,2020-05-10 16:22:19,60.72,-46.03,60.8,26,75,10.29,broken clouds,0.0,0.0
153,La Ronge,CA,2020-05-10 16:22:19,55.1,-105.28,32.0,87,75,6.93,broken clouds,0.0,0.0
154,Prince Rupert,CA,2020-05-10 16:21:43,54.32,-130.32,68.0,24,1,10.29,clear sky,0.0,0.0
155,Thompson,CA,2020-05-10 16:22:19,55.74,-97.86,21.2,41,5,11.41,clear sky,0.0,0.0
156,Kalangala,UG,2020-05-10 16:22:20,-0.31,32.23,75.2,78,20,10.29,few clouds,0.0,0.0
157,Alekseyevsk,RU,2020-05-10 16:22:20,57.84,108.35,38.34,70,2,7.02,clear sky,0.0,0.0
158,Richards Bay,ZA,2020-05-10 16:17:42,-28.78,32.04,70.61,72,0,10.6,clear sky,0.0,0.0
159,Kiama,AU,2020-05-10 16:22:20,-34.68,150.87,48.0,64,3,1.01,clear sky,0.0,0.0
160,San Carlos,VE,2020-05-10 16:22:21,9.66,-68.58,92.01,43,97,6.33,overcast clouds,0.0,0.0
161,Bardiyah,LY,2020-05-10 16:22:21,31.76,25.09,69.75,52,0,7.25,clear sky,0.0,0.0
162,Sandpoint,US,2020-05-10 16:22:21,48.28,-116.55,57.2,35,1,16.11,clear sky,0.0,0.0
163,Victoria,HK,2020-05-10 16:20:02,22.29,114.16,80.01,83,98,5.01,overcast clouds,0.0,0.0
164,Nikolskoye,RU,2020-05-10 16:22:21,59.7,30.79,60.8,21,0,4.47,clear sky,0.0,0.0
165,Kanker,IN,2020-05-10 16:22:21,20.27,81.49,82.47,48,100,14.92,overcast clouds,0.0,0.0
166,Pisco,PE,2020-05-10 16:22:21,-13.7,-76.22,71.6,73,0,6.93,clear sky,0.0,0.0
167,Dhidhdhoo,MV,2020-05-10 16:22:22,6.88,73.1,85.5,71,100,7.45,overcast clouds,0.0,0.0
168,Biltine,TD,2020-05-10 16:22:22,14.53,20.92,100.78,7,0,4.85,clear sky,0.0,0.0
169,Airai,TL,2020-05-10 16:17:28,-8.93,125.41,57.22,100,8,3.29,clear sky,0.0,0.0
170,Cheyenne,US,2020-05-10 16:21:48,41.14,-104.82,46.4,42,1,11.41,clear sky,0.0,0.0
171,Kintampo,GH,2020-05-10 16:22:22,8.06,-1.73,90.68,56,44,7.81,scattered clouds,0.0,0.0
172,Leeton,AU,2020-05-10 16:22:22,-34.57,146.4,35.6,100,0,3.31,clear sky,0.0,0.0
173,Pacifica,US,2020-05-10 16:21:34,37.61,-122.49,59.0,67,75,3.36,broken clouds,0.0,0.0
174,Nampa,US,2020-05-10 16:22:23,43.54,-116.56,66.0,27,1,12.75,clear sky,0.0,0.0
175,Belize,BZ,2020-05-10 16:21:58,17.25,-88.75,82.0,61,100,3.0,overcast clouds,0.0,0.0
176,Kavaratti,IN,2020-05-10 16:22:23,10.57,72.64,85.6,74,70,10.31,broken clouds,0.0,0.0
177,Kununurra,AU,2020-05-10 16:17:45,-15.77,128.73,77.0,36,14,8.05,few clouds,0.0,0.0
178,Ballina,AU,2020-05-10 16:22:23,-28.87,153.57,64.4,59,75,14.99,broken clouds,0.0,0.0
179,Arraial Do Cabo,BR,2020-05-10 16:22:23,-22.97,-42.03,78.8,50,20,17.22,few clouds,0.0,0.0
180,New Norfolk,AU,2020-05-10 16:22:23,-42.78,147.06,48.99,85,76,1.01,broken clouds,0.0,0.0
181,Piacabucu,BR,2020-05-10 16:22:24,-10.41,-36.43,80.37,81,42,11.21,moderate rain,0.0,0.0
182,Hermanus,ZA,2020-05-10 16:20:49,-34.42,19.23,63.0,78,0,0.92,clear sky,0.0,0.0
183,Husavik,IS,2020-05-10 16:18:03,66.04,-17.34,48.2,31,20,20.8,few clouds,0.0,0.0
184,La Rioja,ES,2020-05-10 16:22:24,42.25,-2.5,59.0,87,75,11.41,light rain,0.0,0.0
185,Taoudenni,ML,2020-05-10 16:22:24,22.68,-3.98,107.55,6,29,12.62,scattered clouds,0.0,0.0
186,Nhulunbuy,AU,2020-05-10 16:20:52,-12.23,136.77,80.6,69,75,12.75,broken clouds,0.0,0.0
187,Vanimo,PG,2020-05-10 16:22:24,-2.67,141.3,80.13,86,97,4.29,overcast clouds,0.0,0.0
188,Makat,KZ,2020-05-10 16:22:25,47.65,53.35,57.25,71,100,9.91,light rain,0.0,0.0
189,Yairipok,IN,2020-05-10 16:22:25,24.67,94.07,69.51,55,1,1.72,clear sky,0.0,0.0
190,Elat,IL,2020-05-10 16:22:25,29.56,34.95,89.6,19,0,13.87,clear sky,0.0,0.0
191,Zapolyarnyy,RU,2020-05-10 16:22:25,69.42,30.81,39.2,48,40,12.75,scattered clouds,0.0,0.0
192,Ponta Delgada,PT,2020-05-10 16:22:25,37.73,-25.67,62.6,72,20,19.46,few clouds,0.0,0.0
193,Kahului,US,2020-05-10 16:22:26,20.89,-156.47,69.8,83,40,6.93,scattered clouds,0.0,0.0
194,Brae,GB,2020-05-10 16:22:26,60.4,-1.35,41.0,60,95,25.28,light snow,0.0,0.0
195,Andornaktalya,HU,2020-05-10 16:22:26,47.85,20.42,70.39,62,100,6.08,overcast clouds,0.0,0.0
196,Mari-Turek,RU,2020-05-10 16:22:26,56.79,49.62,56.23,72,9,7.72,clear sky,0.0,0.0
197,Coshocton,US,2020-05-10 16:22:26,40.27,-81.86,55.99,42,98,5.01,overcast clouds,0.0,0.0
198,Ponta Do Sol,PT,2020-05-10 16:22:26,32.67,-17.1,71.6,60,20,4.7,few clouds,0.0,0.0
199,Rio Negrinho,BR,2020-05-10 16:22:27,-26.25,-49.52,66.99,60,0,10.0,clear sky,0.0,0.0
200,Mar Del Plata,AR,2020-05-10 16:19:11,-38.0,-57.56,64.99,67,71,14.99,broken clouds,0.0,0.0
201,Puerto Escondido,MX,2020-05-10 16:20:14,15.85,-97.07,86.0,70,5,6.93,clear sky,0.0,0.0
202,Comodoro Rivadavia,AR,2020-05-10 16:22:27,-45.87,-67.5,50.0,61,75,23.04,light rain,0.0,0.0
203,Deputatskiy,RU,2020-05-10 16:22:27,69.3,139.9,19.89,96,52,4.03,broken clouds,0.0,0.0
204,Upata,VE,2020-05-10 16:22:27,8.01,-62.4,89.01,60,42,7.0,scattered clouds,0.0,0.0
205,Altay,CN,2020-05-10 16:22:28,47.87,88.12,57.24,32,0,4.36,clear sky,0.0,0.0
206,Leningradskiy,RU,2020-05-10 16:22:28,69.38,178.42,35.01,88,100,22.64,overcast clouds,0.0,0.0
207,Tuktoyaktuk,CA,2020-05-10 16:22:28,69.45,-133.04,33.8,80,75,14.99,broken clouds,0.0,0.0
208,Alice Springs,AU,2020-05-10 16:22:28,-23.7,133.88,55.4,35,100,12.75,overcast clouds,0.0,0.0
209,Chulumani,BO,2020-05-10 16:22:28,-16.41,-67.53,77.63,41,62,4.0,broken clouds,0.0,0.0
210,Nivala,FI,2020-05-10 16:22:28,63.92,24.97,46.99,78,100,4.0,light rain,0.0,0.0
211,Podor,MR,2020-05-10 16:22:29,16.65,-14.96,109.4,14,43,2.24,scattered clouds,0.0,0.0
212,Sao Filipe,CV,2020-05-10 16:18:06,14.9,-24.5,74.61,72,25,15.17,scattered clouds,0.0,0.0
213,Mokhsogollokh,RU,2020-05-10 16:22:29,61.47,128.92,27.79,92,96,3.24,overcast clouds,0.0,0.0
214,Haines Junction,CA,2020-05-10 16:22:29,60.75,-137.51,52.3,54,0,2.82,clear sky,0.0,0.0
215,Qaanaaq,GL,2020-05-10 16:20:53,77.48,-69.36,13.91,83,4,3.51,clear sky,0.0,0.0
216,Moose Jaw,CA,2020-05-10 16:20:01,50.4,-105.53,42.01,32,20,13.87,few clouds,0.0,0.0
217,Ajdabiya,LY,2020-05-10 16:22:29,30.76,20.23,90.88,10,21,6.91,few clouds,0.0,0.0
218,Sala Consilina,IT,2020-05-10 16:22:30,40.39,15.6,78.8,29,43,5.82,scattered clouds,0.0,0.0
219,Caravelas,BR,2020-05-10 16:22:30,-17.71,-39.25,76.15,59,74,9.98,broken clouds,0.0,0.0
220,Forestville,US,2020-05-10 16:22:31,38.85,-76.88,59.0,28,1,10.29,clear sky,0.0,0.0
221,Tabou,CI,2020-05-10 16:22:31,4.42,-7.35,86.14,72,50,13.65,scattered clouds,0.0,0.0
222,Kristiansand,NO,2020-05-10 16:18:09,58.15,8.0,51.8,29,20,13.87,shower rain,0.0,0.0
223,Smithers,CA,2020-05-10 16:22:31,54.78,-127.17,53.6,30,20,12.75,few clouds,0.0,0.0
224,Kaseda,JP,2020-05-10 16:22:32,31.42,130.32,65.21,86,98,13.22,overcast clouds,0.0,0.0
225,Saint-Augustin,CA,2020-05-10 16:22:32,51.23,-58.65,35.13,87,99,8.01,overcast clouds,0.0,0.0
226,Naze,JP,2020-05-10 16:22:32,28.37,129.48,71.6,100,90,3.36,mist,0.0,0.0
227,Ocean City,US,2020-05-10 16:17:38,39.28,-74.57,60.8,25,1,13.87,clear sky,0.0,0.0
228,San Patricio,MX,2020-05-10 16:22:32,19.22,-104.7,84.2,62,5,5.82,clear sky,0.0,0.0
229,Saskylakh,RU,2020-05-10 16:22:32,71.92,114.08,16.0,95,100,8.21,overcast clouds,0.0,0.0
230,Platanos,GR,2020-05-10 16:22:33,37.67,21.62,68.0,60,40,3.36,scattered clouds,0.0,0.0
231,Lebu,CL,2020-05-10 16:22:33,-37.62,-73.65,56.1,83,73,8.9,light rain,0.0,0.0
232,Jishou,CN,2020-05-10 16:22:33,28.32,109.72,66.27,80,0,2.33,clear sky,0.0,0.0
233,Bechem,GH,2020-05-10 16:22:33,7.09,-2.02,90.45,54,40,2.59,light rain,0.0,0.0
234,Sorland,NO,2020-05-10 16:22:33,67.67,12.69,32.0,79,75,4.7,light shower snow,0.0,0.0
235,Wonogiri,ID,2020-05-10 16:22:33,-7.81,110.93,77.18,87,100,1.72,light rain,0.0,0.0
236,Baglan,AF,2020-05-10 16:22:34,36.13,68.71,74.12,53,100,1.32,overcast clouds,0.0,0.0
237,Iqaluit,CA,2020-05-10 16:22:34,63.75,-68.51,26.6,68,90,24.16,light snow,0.0,0.0
238,Pendleton,US,2020-05-10 16:22:34,45.67,-118.79,62.6,42,1,8.05,clear sky,0.0,0.0
239,Esperance,AU,2020-05-10 16:22:34,-33.87,121.9,55.4,47,48,13.87,scattered clouds,0.0,0.0
240,Bracebridge,CA,2020-05-10 16:22:34,45.03,-79.32,45.0,48,40,12.75,scattered clouds,0.0,0.0
241,Lock Haven,US,2020-05-10 16:22:34,41.14,-77.45,55.4,28,1,14.99,clear sky,0.0,0.0
242,Zhanakorgan,KZ,2020-05-10 16:22:35,43.91,67.25,77.14,23,0,6.49,clear sky,0.0,0.0
243,Teguise,ES,2020-05-10 16:22:35,29.06,-13.56,75.2,60,75,13.87,broken clouds,0.0,0.0
244,Kutum,SD,2020-05-10 16:22:35,14.2,24.67,90.23,11,17,6.35,few clouds,0.0,0.0
245,Lata,PT,2020-05-10 16:22:35,40.16,-8.33,68.0,67,35,5.99,light rain,0.0,0.0
246,Carutapera,BR,2020-05-10 16:22:35,-1.2,-46.02,85.69,69,0,7.63,light rain,0.0,0.0
247,Port Elizabeth,ZA,2020-05-10 16:22:35,-33.92,25.57,69.8,43,0,8.05,clear sky,0.0,0.0
248,Vila Velha,BR,2020-05-10 16:18:53,-20.33,-40.29,78.8,47,20,6.93,few clouds,0.0,0.0
249,Tandil,AR,2020-05-10 16:22:36,-37.32,-59.13,65.82,56,57,10.56,broken clouds,0.0,0.0
250,Vuktyl,RU,2020-05-10 16:22:36,63.86,57.31,56.1,82,99,7.63,overcast clouds,0.0,0.0
251,Cherskiy,RU,2020-05-10 16:18:05,68.75,161.3,33.31,89,0,20.29,clear sky,0.0,0.0
252,Samana,DO,2020-05-10 16:22:36,19.21,-69.34,89.6,62,20,9.17,few clouds,0.0,0.0
253,Toora-Khem,RU,2020-05-10 16:22:36,52.47,96.11,49.66,52,0,1.74,clear sky,0.0,0.0
254,Sanchazi,CN,2020-05-10 16:22:36,42.08,126.6,47.28,67,23,14.9,few clouds,0.0,0.0
255,Hambantota,LK,2020-05-10 16:22:36,6.12,81.12,82.4,100,40,1.12,thunderstorm,0.0,0.0
256,Thyboron,DK,2020-05-10 16:22:36,56.7,8.21,48.99,67,60,1.99,broken clouds,0.0,0.0
257,Beyneu,KZ,2020-05-10 16:22:37,45.32,55.2,65.46,72,100,15.46,light rain,0.0,0.0
258,Kodinsk,RU,2020-05-10 16:22:37,58.69,99.18,45.34,56,0,2.91,clear sky,0.0,0.0
259,Boende,CD,2020-05-10 16:22:37,-0.22,20.87,79.3,86,60,1.79,moderate rain,0.0,0.0
260,Vrangel,RU,2020-05-10 16:22:37,42.73,133.08,47.73,93,53,2.33,light rain,0.0,0.0
261,Dungarpur,IN,2020-05-10 16:22:37,23.83,73.72,90.91,15,2,7.81,clear sky,0.0,0.0
262,Bikin,RU,2020-05-10 16:22:38,46.82,134.26,44.2,96,27,3.31,scattered clouds,0.0,0.0
263,Dovolnoye,RU,2020-05-10 16:22:38,54.5,79.67,64.09,48,0,7.25,clear sky,0.0,0.0
264,Tiznit,MA,2020-05-10 16:22:38,29.58,-9.5,65.32,57,26,15.37,scattered clouds,0.0,0.0
265,Sistranda,NO,2020-05-10 16:22:38,63.73,8.83,39.2,64,40,17.22,light shower snow,0.0,0.0
266,Bumba,CD,2020-05-10 16:22:38,2.18,22.47,82.15,71,44,3.62,scattered clouds,0.0,0.0
267,Bontang,ID,2020-05-10 16:22:38,0.13,117.5,80.83,82,67,4.29,broken clouds,0.0,0.0
268,Beira,MZ,2020-05-10 16:22:38,-19.84,34.84,77.0,69,40,9.17,scattered clouds,0.0,0.0
269,Grand Gaube,MU,2020-05-10 16:22:39,-20.01,57.66,71.01,74,26,3.0,scattered clouds,0.0,0.0
270,Minab,IR,2020-05-10 16:22:39,27.15,57.08,95.0,39,59,9.17,broken clouds,0.0,0.0
271,Port Lincoln,AU,2020-05-10 16:22:39,-34.73,135.87,55.04,68,16,5.73,few clouds,0.0,0.0
272,Karaton,ID,2020-05-10 16:22:39,-6.34,106.1,82.4,88,20,3.36,haze,0.0,0.0
273,Mananjary,MG,2020-05-10 16:22:39,-21.22,48.33,71.28,87,63,6.42,light rain,0.0,0.0
274,Nanortalik,GL,2020-05-10 16:22:39,60.14,-45.24,45.16,74,99,16.22,overcast clouds,0.0,0.0
275,Atar,MR,2020-05-10 16:22:39,20.52,-13.05,102.69,8,42,11.77,scattered clouds,0.0,0.0
276,Tomatlan,MX,2020-05-10 16:22:40,19.93,-105.25,89.44,33,0,4.54,clear sky,0.0,0.0
277,Saint Anthony,US,2020-05-10 16:22:40,45.02,-93.22,44.01,60,90,14.99,light rain,0.0,0.0
278,Avera,US,2020-05-10 16:22:40,33.19,-82.53,70.0,42,40,6.93,scattered clouds,0.0,0.0
279,Mwense,ZM,2020-05-10 16:22:40,-10.38,28.7,69.58,66,100,5.3,overcast clouds,0.0,0.0
280,Durban,ZA,2020-05-10 16:20:36,-29.86,31.03,69.8,83,0,4.7,clear sky,0.0,0.0
281,Bambous Virieux,MU,2020-05-10 16:22:40,-20.34,57.76,73.4,69,40,12.75,scattered clouds,0.0,0.0
282,Fruitvale,US,2020-05-10 16:22:41,39.08,-108.5,62.6,17,1,6.93,clear sky,0.0,0.0
283,Salalah,OM,2020-05-10 16:18:44,17.02,54.09,84.2,83,10,6.93,clear sky,0.0,0.0
284,Todos Santos,MX,2020-05-10 16:22:41,23.45,-110.22,62.01,85,0,8.01,clear sky,0.0,0.0
285,Alofi,NU,2020-05-10 16:22:41,-19.06,-169.92,75.2,100,40,5.82,scattered clouds,0.0,0.0
286,Mount Isa,AU,2020-05-10 16:20:53,-20.73,139.5,62.6,23,7,16.11,clear sky,0.0,0.0
287,Caibarien,CU,2020-05-10 16:22:41,22.52,-79.47,77.0,100,75,1.12,thunderstorm with rain,0.0,0.0
288,Mahibadhoo,MV,2020-05-10 16:22:41,3.78,72.97,85.73,79,100,12.26,overcast clouds,0.0,0.0
289,Sokoto,NG,2020-05-10 16:22:42,13.06,5.24,97.41,29,52,5.48,broken clouds,0.0,0.0
290,Xining,CN,2020-05-10 16:22:42,36.62,101.77,40.64,65,45,2.06,scattered clouds,0.0,0.0
291,Mountain Home,US,2020-05-10 16:19:08,43.13,-115.69,62.6,29,1,19.46,clear sky,0.0,0.0
292,Borgarnes,IS,2020-05-10 16:22:42,64.54,-21.92,46.99,60,40,16.11,scattered clouds,0.0,0.0
293,Bafoulabe,ML,2020-05-10 16:18:12,13.81,-10.83,107.65,18,59,9.17,broken clouds,0.0,0.0
294,Moindou,NC,2020-05-10 16:22:42,-21.69,165.68,62.6,93,40,4.7,scattered clouds,0.0,0.0
295,Moncton,CA,2020-05-10 16:22:34,46.12,-64.8,37.4,59,75,21.92,broken clouds,0.0,0.0
296,Santa Cruz,BO,2020-05-10 16:21:44,-17.8,-63.17,82.4,51,20,23.04,few clouds,0.0,0.0
297,Stroby Egede,DK,2020-05-10 16:22:43,55.41,12.24,57.2,76,99,17.22,overcast clouds,0.0,0.0
298,Lundazi,ZM,2020-05-10 16:22:43,-12.29,33.18,64.98,73,51,6.85,broken clouds,0.0,0.0
299,Mannarakkat,IN,2020-05-10 16:22:43,10.98,76.47,86.0,70,40,6.93,scattered clouds,0.0,0.0
300,Acajutla,SV,2020-05-10 16:22:43,13.59,-89.83,86.0,58,77,4.23,haze,0.0,0.0
301,Hovd,MN,2020-05-10 16:22:44,48.01,91.64,51.4,36,0,0.47,clear sky,0.0,0.0
302,Kamenka,RU,2020-05-10 16:22:44,51.32,42.77,55.0,66,88,4.0,light rain,0.0,0.0
303,Gunjur,GM,2020-05-10 16:22:44,13.2,-16.73,82.4,61,97,9.17,overcast clouds,0.0,0.0
304,Yerraguntla,IN,2020-05-10 16:22:44,14.64,78.54,92.26,33,28,8.72,scattered clouds,0.0,0.0
305,Ambilobe,MG,2020-05-10 16:22:44,-13.2,49.05,76.42,78,37,2.64,scattered clouds,0.0,0.0
306,San Quintin,MX,2020-05-10 16:22:44,30.48,-115.95,65.95,78,28,5.44,scattered clouds,0.0,0.0
307,Santa Vitoria,BR,2020-05-10 16:22:45,-18.84,-50.12,78.28,59,0,7.61,clear sky,0.0,0.0
308,Geraldton,AU,2020-05-10 16:20:55,-28.77,114.6,60.8,72,40,4.7,scattered clouds,0.0,0.0
309,Marshall,US,2020-05-10 16:22:46,34.38,-86.33,63.0,43,1,5.44,light rain,0.0,0.0
310,Ushtobe,KZ,2020-05-10 16:22:46,45.25,77.98,63.9,57,22,8.61,few clouds,0.0,0.0
311,Minnedosa,CA,2020-05-10 16:22:46,50.25,-99.84,41.0,38,40,10.29,scattered clouds,0.0,0.0
312,Barroquinha,BR,2020-05-10 16:22:47,-3.02,-41.14,82.44,85,36,3.44,moderate rain,0.0,0.0
313,Gamba,GA,2020-05-10 16:22:47,-2.65,10.0,75.25,95,100,5.82,light rain,0.0,0.0
314,Saint-Georges,GD,2020-05-10 16:18:03,12.06,-61.75,87.8,62,20,17.22,few clouds,0.0,0.0
315,Faya,SA,2020-05-10 16:22:47,18.39,42.45,73.4,60,16,11.41,few clouds,0.0,0.0
316,Najran,SA,2020-05-10 16:22:47,17.49,44.13,91.4,19,12,6.93,few clouds,0.0,0.0
317,Bandarbeyla,SO,2020-05-10 16:22:47,9.49,50.81,83.95,73,0,11.45,clear sky,0.0,0.0
318,Ilinskiy,RU,2020-05-10 16:22:48,55.62,38.12,61.0,41,76,13.42,broken clouds,0.0,0.0
319,Sitka,US,2020-05-10 16:22:48,57.05,-135.33,62.6,42,40,4.7,scattered clouds,0.0,0.0
320,Berlevag,NO,2020-05-10 16:22:48,70.86,29.09,33.8,59,29,4.7,scattered clouds,0.0,0.0
321,Buala,SB,2020-05-10 16:22:48,-8.14,159.59,81.12,82,8,6.22,clear sky,0.0,0.0
322,Plouzane,FR,2020-05-10 16:20:17,48.38,-4.62,66.2,72,87,17.22,overcast clouds,0.0,0.0
323,Camarillo,US,2020-05-10 16:22:48,34.22,-119.04,61.0,82,90,4.7,haze,0.0,0.0
324,Ahipara,NZ,2020-05-10 16:22:48,-35.17,173.17,56.98,85,98,6.64,overcast clouds,0.0,0.0
325,Noumea,NC,2020-05-10 16:20:54,-22.28,166.46,62.6,93,40,4.7,scattered clouds,0.0,0.0
326,Razole,IN,2020-05-10 16:22:49,16.48,81.83,82.83,82,29,3.36,scattered clouds,0.0,0.0
327,Tapiramuta,BR,2020-05-10 16:22:49,-11.85,-40.79,69.69,79,90,8.1,overcast clouds,0.0,0.0
328,Phonhong,LA,2020-05-10 16:22:49,18.5,102.42,80.58,81,40,3.02,light rain,0.0,0.0
329,Dikson,RU,2020-05-10 16:22:49,73.51,80.55,27.32,97,92,13.73,overcast clouds,0.0,0.0
330,Yar-Sale,RU,2020-05-10 16:22:49,66.83,70.83,31.44,98,95,9.51,overcast clouds,0.0,0.0
331,Tuatapere,NZ,2020-05-10 16:22:50,-46.13,167.68,51.13,79,100,6.49,overcast clouds,0.0,0.0
332,Kristiinankaupunki,FI,2020-05-10 16:22:50,62.27,21.38,42.33,95,100,11.23,moderate rain,0.0,0.0
333,Eirunepe,BR,2020-05-10 16:22:50,-6.66,-69.87,92.46,46,7,0.45,clear sky,0.0,0.0
334,Rampur Hat,IN,2020-05-10 16:22:50,24.17,87.78,92.3,36,3,8.32,clear sky,0.0,0.0
335,Vestmannaeyjar,IS,2020-05-10 16:22:50,63.44,-20.27,44.6,66,40,11.41,scattered clouds,0.0,0.0
336,Petrozavodsk,RU,2020-05-10 16:22:51,61.78,34.35,50.0,37,4,8.95,clear sky,0.0,0.0
337,Tasiilaq,GL,2020-05-10 16:22:51,65.61,-37.64,35.6,80,1,5.82,clear sky,0.0,0.0
338,Lethem,GY,2020-05-10 16:22:51,3.38,-59.8,90.48,49,56,9.31,broken clouds,0.0,0.0
339,Hokitika,NZ,2020-05-10 16:22:51,-42.72,170.97,54.28,81,95,7.07,overcast clouds,0.0,0.0
340,Faanui,PF,2020-05-10 16:22:51,-16.48,-151.75,80.8,82,31,12.15,scattered clouds,0.0,0.0
341,Coquimbo,CL,2020-05-10 16:18:21,-29.95,-71.34,53.6,87,90,6.93,overcast clouds,0.0,0.0
342,Ayagoz,KZ,2020-05-10 16:22:52,47.97,80.44,60.96,57,93,4.45,overcast clouds,0.0,0.0
343,Vostok,RU,2020-05-10 16:22:52,46.49,135.88,41.16,99,97,4.32,overcast clouds,0.0,0.0
344,Constitucion,CL,2020-05-10 16:22:52,-35.33,-72.42,61.16,69,32,3.13,scattered clouds,0.0,0.0
345,Coihaique,CL,2020-05-10 16:22:52,-45.58,-72.07,50.0,66,40,2.24,scattered clouds,0.0,0.0
346,Bonavista,CA,2020-05-10 16:22:52,48.65,-53.11,36.64,79,3,32.08,clear sky,0.0,0.0
347,Colares,PT,2020-05-10 16:22:52,38.8,-9.45,66.0,72,40,14.99,scattered clouds,0.0,0.0
348,Belvidere,US,2020-05-10 16:21:33,42.26,-88.84,46.99,93,90,1.99,light rain,0.0,0.0
349,Dawlatabad,AF,2020-05-10 16:22:53,36.41,64.91,80.87,34,100,6.89,overcast clouds,0.0,0.0
350,Sakakah,SA,2020-05-10 16:22:53,29.97,40.21,82.4,13,0,9.17,clear sky,0.0,0.0
351,Luganville,VU,2020-05-10 16:22:53,-15.53,167.17,75.2,94,90,6.4,light intensity shower rain,0.0,0.0
352,Guerrero Negro,MX,2020-05-10 16:19:23,27.98,-114.06,67.68,69,35,9.42,scattered clouds,0.0,0.0
353,Bilma,NE,2020-05-10 16:22:53,18.69,12.92,103.64,6,0,2.51,clear sky,0.0,0.0
354,Port-Gentil,GA,2020-05-10 16:22:54,-0.72,8.78,78.8,100,75,9.17,thunderstorm with light rain,0.0,0.0
355,Waingapu,ID,2020-05-10 16:22:54,-9.66,120.26,77.13,79,32,8.84,scattered clouds,0.0,0.0
356,Labuhan,ID,2020-05-10 16:22:54,-6.88,112.21,80.78,85,98,8.19,overcast clouds,0.0,0.0
357,Magadan,RU,2020-05-10 16:22:54,59.57,150.8,34.83,84,100,6.06,overcast clouds,0.0,0.0
358,Kargil,IN,2020-05-10 16:22:54,34.57,76.1,41.0,64,13,5.77,few clouds,0.0,0.0
359,Broken Hill,AU,2020-05-10 16:22:55,-31.95,141.43,44.6,70,0,8.05,clear sky,0.0,0.0
360,Wanaka,NZ,2020-05-10 16:22:55,-44.7,169.15,49.14,76,100,4.32,overcast clouds,0.0,0.0
361,Mantua,IT,2020-05-10 16:22:55,45.17,10.78,75.99,49,13,3.0,few clouds,0.0,0.0
362,Tiksi,RU,2020-05-10 16:22:55,71.69,128.87,27.03,98,84,5.86,broken clouds,0.0,0.0
363,Sirnak,TR,2020-05-10 16:22:55,37.52,42.46,51.13,83,20,1.28,few clouds,0.0,0.0
364,Kangaatsiaq,GL,2020-05-10 16:22:55,68.31,-53.46,32.76,92,95,12.33,overcast clouds,0.0,0.0
365,Nouadhibou,MR,2020-05-10 16:22:56,20.93,-17.03,69.06,74,86,27.27,overcast clouds,0.0,0.0
366,Mandali,IQ,2020-05-10 16:22:56,33.75,45.55,82.83,18,0,10.45,clear sky,0.0,0.0
367,Roebourne,AU,2020-05-10 16:20:32,-20.78,117.13,77.97,27,92,18.23,overcast clouds,0.0,0.0
368,Maxixe,MZ,2020-05-10 16:22:56,-23.86,35.35,73.4,69,20,7.2,few clouds,0.0,0.0
369,Dunmore East,IE,2020-05-10 16:22:56,52.15,-6.99,54.0,71,40,18.34,scattered clouds,0.0,0.0
370,Los Llanos De Aridane,ES,2020-05-10 16:22:56,28.66,-17.92,73.4,69,20,18.34,few clouds,0.0,0.0
371,Rudsar,IR,2020-05-10 16:22:57,37.14,50.29,60.8,93,90,16.11,mist,0.0,0.0
372,Saint-Joseph,RE,2020-05-10 16:22:57,-21.37,55.62,71.6,60,75,6.93,broken clouds,0.0,0.0
373,Cao Bang,VN,2020-05-10 16:21:46,22.67,106.25,78.08,86,68,0.94,light rain,0.0,0.0
374,Harper,LR,2020-05-10 16:19:58,4.38,-7.72,85.82,71,15,13.62,few clouds,0.0,0.0
375,Nueva Loja,EC,2020-05-10 16:22:57,0.08,-76.88,84.2,66,75,3.36,broken clouds,0.0,0.0
376,Starkville,US,2020-05-10 16:20:41,33.45,-88.82,66.99,39,1,3.36,clear sky,0.0,0.0
377,Soc Trang,VN,2020-05-10 16:19:03,9.6,105.98,82.4,88,20,3.36,few clouds,0.0,0.0
378,Sarti,GR,2020-05-10 16:22:58,40.1,23.98,65.91,63,95,5.88,overcast clouds,0.0,0.0
379,Ust-Kan,RU,2020-05-10 16:22:58,50.93,84.76,56.73,38,7,2.71,clear sky,0.0,0.0
380,Chumikan,RU,2020-05-10 16:22:58,54.72,135.31,33.03,96,100,11.12,light snow,0.0,0.0
381,Tashtyp,RU,2020-05-10 16:22:58,52.79,89.9,53.85,59,0,1.36,clear sky,0.0,0.0
382,Mishkino,RU,2020-05-10 16:22:58,55.34,63.92,61.2,82,30,4.36,scattered clouds,0.0,0.0
383,Katherine,AU,2020-05-10 16:22:59,-14.47,132.27,75.2,47,42,10.29,scattered clouds,0.0,0.0
384,Basoko,CD,2020-05-10 16:22:59,1.24,23.62,79.88,82,99,2.71,moderate rain,0.0,0.0
385,Kloulklubed,PW,2020-05-10 16:22:59,7.04,134.26,75.2,100,90,3.36,light intensity shower rain,0.0,0.0
386,Veraval,IN,2020-05-10 16:21:48,20.9,70.37,82.69,81,0,12.24,clear sky,0.0,0.0
387,Port Blair,IN,2020-05-10 16:22:08,11.67,92.75,85.35,75,99,3.44,overcast clouds,0.0,0.0
388,Vazhiny,RU,2020-05-10 16:23:00,60.96,34.02,53.08,46,0,3.69,clear sky,0.0,0.0
389,Severo-Kurilsk,RU,2020-05-10 16:23:00,50.68,156.12,33.22,92,69,12.08,broken clouds,0.0,0.0
390,Elizabeth City,US,2020-05-10 16:23:00,36.29,-76.25,63.0,44,1,10.29,clear sky,0.0,0.0
391,Catuday,PH,2020-05-10 16:23:00,16.29,119.81,81.82,83,0,11.81,clear sky,0.0,0.0
392,Bend,US,2020-05-10 16:21:04,44.06,-121.32,60.8,36,1,3.36,clear sky,0.0,0.0
393,Sawtell,AU,2020-05-10 16:23:01,-30.38,153.1,57.2,47,23,12.75,few clouds,0.0,0.0
394,Kruje,AL,2020-05-10 16:23:01,41.51,19.79,68.0,42,75,2.24,broken clouds,0.0,0.0
395,Pitimbu,BR,2020-05-10 16:23:01,-7.47,-34.81,87.8,62,40,11.41,scattered clouds,0.0,0.0
396,Odessa,UA,2020-05-10 16:21:44,46.48,30.73,64.4,42,41,15.66,scattered clouds,0.0,0.0
397,Turukhansk,RU,2020-05-10 16:23:01,65.82,87.98,39.51,74,100,17.36,overcast clouds,0.0,0.0
398,Casper,US,2020-05-10 16:23:01,42.87,-106.31,46.4,42,90,6.93,overcast clouds,0.0,0.0
399,Santiago De Cao,PE,2020-05-10 16:23:02,-7.96,-79.24,69.8,77,92,13.87,overcast clouds,0.0,0.0
400,Sudova Vyshnya,UA,2020-05-10 16:23:02,49.79,23.37,72.0,43,10,6.71,light rain,0.0,0.0
401,Palmer,US,2020-05-10 16:23:02,42.16,-72.33,51.8,32,75,17.22,broken clouds,0.0,0.0
402,Tura,IN,2020-05-10 16:23:02,25.52,90.22,79.3,47,2,2.86,clear sky,0.0,0.0
403,Baruun-Urt,MN,2020-05-10 16:18:18,46.68,113.28,47.55,54,78,19.89,broken clouds,0.0,0.0
404,Borgustanskaya,RU,2020-05-10 16:23:02,44.05,42.53,57.2,58,77,4.47,broken clouds,0.0,0.0
405,Grindavik,IS,2020-05-10 16:23:03,63.84,-22.43,44.6,65,40,17.22,scattered clouds,0.0,0.0
406,Mill Valley,US,2020-05-10 16:23:03,37.91,-122.55,55.99,67,100,1.01,overcast clouds,0.0,0.0
407,Morlaix,FR,2020-05-10 16:23:03,48.58,-4.0,60.01,77,75,18.34,broken clouds,0.0,0.0
408,Straumen,NO,2020-05-10 16:23:03,63.87,11.3,39.0,59,75,21.92,broken clouds,0.0,0.0
409,Puerto Leguizamo,CO,2020-05-10 16:23:03,-0.19,-74.78,79.2,76,97,2.35,overcast clouds,0.0,0.0
410,Sabha,LY,2020-05-10 16:23:04,27.04,14.43,100.49,8,43,7.76,scattered clouds,0.0,0.0
411,Inta,RU,2020-05-10 16:23:04,66.03,60.17,42.33,95,100,9.19,light rain,0.0,0.0
412,Kupang,ID,2020-05-10 16:23:04,-10.17,123.58,77.88,76,0,9.91,clear sky,0.0,0.0
413,Bogorodskoye,RU,2020-05-10 16:23:04,56.55,37.88,51.76,65,99,9.95,overcast clouds,0.0,0.0
414,Bagdarin,RU,2020-05-10 16:23:04,54.43,113.6,37.9,72,18,13.8,few clouds,0.0,0.0
415,Matara,LK,2020-05-10 16:23:04,5.95,80.54,81.54,85,100,5.68,moderate rain,0.0,0.0
416,Fairbanks,US,2020-05-10 16:20:33,64.84,-147.72,57.0,43,1,2.24,clear sky,0.0,0.0
417,Umm Kaddadah,SD,2020-05-10 16:23:05,13.6,26.69,95.88,9,34,8.57,scattered clouds,0.0,0.0
418,Axim,GH,2020-05-10 16:23:05,4.87,-2.24,83.57,77,63,13.06,broken clouds,0.0,0.0
419,Chatra,IN,2020-05-10 16:23:05,24.22,84.87,82.4,58,40,4.7,haze,0.0,0.0
420,Saint-Denis,FR,2020-05-10 16:23:05,48.92,2.33,72.0,60,20,4.7,few clouds,0.0,0.0
421,Limbdi,IN,2020-05-10 16:23:05,22.57,71.8,88.79,44,0,16.46,clear sky,0.0,0.0
422,Mayumba,GA,2020-05-10 16:23:06,-3.43,10.66,77.86,88,100,7.23,overcast clouds,0.0,0.0
423,Baykit,RU,2020-05-10 16:23:06,61.67,96.37,43.12,60,56,1.5,broken clouds,0.0,0.0
424,Kokopo,PG,2020-05-10 16:23:06,-4.35,152.26,78.91,80,47,5.48,scattered clouds,0.0,0.0
425,Catu,BR,2020-05-10 16:23:06,-12.35,-38.38,75.2,94,90,16.11,light rain,0.0,0.0
426,Rabo De Peixe,PT,2020-05-10 16:23:06,37.8,-25.58,62.6,72,20,19.46,few clouds,0.0,0.0
427,Dunedin,NZ,2020-05-10 16:23:06,-45.87,170.5,48.99,97,33,1.99,scattered clouds,0.0,0.0
428,Misratah,LY,2020-05-10 16:23:06,32.38,15.09,81.68,33,100,25.5,overcast clouds,0.0,0.0
429,Manta,EC,2020-05-10 16:22:24,-0.95,-80.73,84.2,74,75,8.05,broken clouds,0.0,0.0
430,Antsohihy,MG,2020-05-10 16:23:07,-14.88,47.99,80.33,56,22,8.93,few clouds,0.0,0.0
431,Muros,ES,2020-05-10 16:18:36,42.78,-9.06,69.01,73,1,14.0,clear sky,0.0,0.0
432,Inuvik,CA,2020-05-10 16:23:07,68.35,-133.72,41.0,60,40,8.05,scattered clouds,0.0,0.0
433,Werda,BW,2020-05-10 16:23:07,-25.27,23.28,71.2,35,0,5.84,clear sky,0.0,0.0
434,Acapulco,MX,2020-05-10 16:23:07,16.86,-99.89,87.8,62,5,5.82,haze,0.0,0.0
435,Krasnoselkup,RU,2020-05-10 16:23:07,65.7,82.47,38.86,75,65,19.13,broken clouds,0.0,0.0
436,Hirara,JP,2020-05-10 16:19:38,24.8,125.28,78.78,88,9,8.5,clear sky,0.0,0.0
437,San Cristobal,VE,2020-05-10 16:17:25,7.77,-72.22,96.8,28,20,23.04,few clouds,0.0,0.0
438,Esqueda,MX,2020-05-10 16:23:08,30.72,-109.58,73.99,38,0,4.0,clear sky,0.0,0.0
439,Kaeo,NZ,2020-05-10 16:23:08,-35.1,173.78,60.01,3,93,5.01,overcast clouds,0.0,0.0
440,Nemuro,JP,2020-05-10 16:23:09,43.32,145.57,45.82,98,100,14.88,overcast clouds,0.0,0.0
441,Broome,US,2020-05-10 16:19:29,42.25,-75.83,51.01,42,90,18.34,overcast clouds,0.0,0.0
442,Uruacu,BR,2020-05-10 16:23:09,-14.52,-49.14,82.11,59,0,5.41,clear sky,0.0,0.0
443,San Jose De Guanipa,VE,2020-05-10 16:23:09,8.89,-64.17,93.02,36,0,12.86,clear sky,0.0,0.0
444,Clyde River,CA,2020-05-10 16:23:09,70.47,-68.59,14.0,66,75,8.05,broken clouds,0.0,0.0
445,Griffith,US,2020-05-10 16:23:09,41.53,-87.42,48.2,87,90,11.52,overcast clouds,0.0,0.0
446,Medzilaborce,SK,2020-05-10 16:23:10,49.27,21.9,66.99,46,61,9.22,broken clouds,0.0,0.0
447,Freeport,US,2020-05-10 16:21:45,40.66,-73.58,57.2,30,1,14.99,clear sky,0.0,0.0
448,Isangel,VU,2020-05-10 16:23:10,-19.55,169.27,64.4,93,20,7.29,few clouds,0.0,0.0
449,Senneterre,CA,2020-05-10 16:23:10,48.38,-77.23,33.8,69,90,12.75,light snow,0.0,0.0
450,Ambon,ID,2020-05-10 16:23:10,-3.7,128.18,81.54,80,95,8.16,overcast clouds,0.0,0.0
451,Krasnovishersk,RU,2020-05-10 16:23:10,60.41,57.08,60.62,71,74,7.34,light rain,0.0,0.0
452,Santa Fe,AR,2020-05-10 16:18:29,-31.63,-60.7,74.37,50,0,13.47,clear sky,0.0,0.0
453,Igarka,RU,2020-05-10 16:23:11,67.47,86.58,32.61,97,100,8.86,light snow,0.0,0.0
454,Chuy,UY,2020-05-10 16:20:49,-33.7,-53.46,70.5,55,55,11.48,broken clouds,0.0,0.0
455,Pak Phanang,TH,2020-05-10 16:23:11,8.35,100.2,84.38,81,100,5.26,light rain,0.0,0.0
456,North Bend,US,2020-05-10 16:23:11,43.41,-124.22,55.99,87,90,3.36,overcast clouds,0.0,0.0
457,Vao,NC,2020-05-10 16:23:12,-22.67,167.48,71.49,61,1,6.85,clear sky,0.0,0.0
458,Pelym,RU,2020-05-10 16:23:12,61.01,62.0,66.31,41,50,5.61,scattered clouds,0.0,0.0
459,Votkinsk,RU,2020-05-10 16:23:12,57.05,53.99,61.0,53,30,1.01,scattered clouds,0.0,0.0
460,Gravdal,NO,2020-05-10 16:23:12,68.12,13.5,32.0,78,75,4.7,light shower snow,0.0,0.0
461,Tyumentsevo,RU,2020-05-10 16:23:12,53.32,81.5,66.97,46,0,9.22,clear sky,0.0,0.0
462,Lebork,PL,2020-05-10 16:23:13,54.54,17.75,69.8,40,71,14.99,broken clouds,0.0,0.0
463,El Alto,PE,2020-05-10 16:19:17,-4.27,-81.21,76.82,67,83,11.16,broken clouds,0.0,0.0
464,Santiago Del Estero,AR,2020-05-10 16:21:48,-27.8,-64.26,77.43,48,50,15.61,scattered clouds,0.0,0.0
465,Auki,SB,2020-05-10 16:23:13,-8.77,160.7,78.98,86,7,4.52,clear sky,0.0,0.0
466,Santa Maria,BR,2020-05-10 16:18:44,-29.68,-53.81,78.8,41,62,16.11,broken clouds,0.0,0.0
467,Santa Maria Del Oro,MX,2020-05-10 16:23:14,25.93,-105.37,73.89,27,0,5.75,clear sky,0.0,0.0
468,Moosomin,CA,2020-05-10 16:23:14,50.13,-101.67,31.59,93,77,11.07,broken clouds,0.0,0.0
469,Neiafu,TO,2020-05-10 16:23:14,-18.65,-173.98,73.4,94,75,6.49,broken clouds,0.0,0.0
470,Troitskoye,RU,2020-05-10 16:23:14,52.98,84.68,65.48,42,0,4.32,clear sky,0.0,0.0
471,Halol,IN,2020-05-10 16:23:14,22.5,73.47,95.0,36,0,6.93,clear sky,0.0,0.0
472,Sur,OM,2020-05-10 16:23:14,22.57,59.53,84.18,54,0,2.77,clear sky,0.0,0.0
473,Paamiut,GL,2020-05-10 16:23:15,61.99,-49.67,40.89,82,100,23.69,overcast clouds,0.0,0.0
474,Bingol,TR,2020-05-10 16:23:15,38.88,40.49,53.06,54,39,5.77,scattered clouds,0.0,0.0
475,Seoul,KR,2020-05-10 16:21:12,37.57,126.98,57.2,93,20,6.93,mist,0.0,0.0
476,Homer,US,2020-05-10 16:23:15,59.64,-151.55,50.0,61,1,6.93,clear sky,0.0,0.0
477,Nishihara,JP,2020-05-10 16:23:15,26.18,127.76,78.8,83,90,9.17,overcast clouds,0.0,0.0
478,Inhambupe,BR,2020-05-10 16:23:15,-11.78,-38.35,77.27,82,100,13.78,moderate rain,0.0,0.0
479,Huarmey,PE,2020-05-10 16:23:16,-10.07,-78.15,72.73,70,56,8.32,broken clouds,0.0,0.0
480,Ulaangom,MN,2020-05-10 16:23:16,49.98,92.07,52.68,40,0,0.22,clear sky,0.0,0.0
481,Mut,TR,2020-05-10 16:23:16,36.64,33.44,74.71,31,0,2.62,clear sky,0.0,0.0
482,Olga,RU,2020-05-10 16:23:16,43.74,135.29,44.33,94,84,4.29,broken clouds,0.0,0.0
483,Koygorodok,RU,2020-05-10 16:23:16,60.45,51.0,57.36,92,80,2.62,moderate rain,0.0,0.0
484,Filadelfia,US,2020-05-10 16:18:52,39.95,-75.16,59.0,28,40,19.46,scattered clouds,0.0,0.0
485,Khoy,IR,2020-05-10 16:23:16,38.55,44.95,56.01,68,40,10.76,light rain,0.0,0.0
486,Yarada,IN,2020-05-10 16:23:17,17.65,83.27,84.2,83,20,2.24,mist,0.0,0.0
487,Emerald,AU,2020-05-10 16:20:02,-23.53,148.17,64.4,34,75,19.46,broken clouds,0.0,0.0
488,Eyl,SO,2020-05-10 16:23:17,7.98,49.82,85.42,68,0,10.16,clear sky,0.0,0.0
489,Rudraprayag,IN,2020-05-10 16:23:17,30.28,78.98,65.01,63,53,5.44,light rain,0.0,0.0
490,Sept-Iles,CA,2020-05-10 16:23:17,50.2,-66.38,44.01,41,75,17.22,broken clouds,0.0,0.0
491,Lieksa,FI,2020-05-10 16:23:17,63.32,30.02,46.36,55,82,12.46,broken clouds,0.0,0.0
492,Ossora,RU,2020-05-10 16:23:18,59.24,163.07,29.97,94,100,4.34,overcast clouds,0.0,0.0
493,Okhotsk,RU,2020-05-10 16:20:37,59.38,143.3,36.41,83,100,12.48,overcast clouds,0.0,0.0
494,Arlit,NE,2020-05-10 16:19:23,18.74,7.39,107.11,6,14,7.16,few clouds,0.0,0.0
495,Vyazniki,RU,2020-05-10 16:18:59,56.25,42.17,54.79,86,93,2.93,light rain,0.0,0.0
496,Gizo,SB,2020-05-10 16:23:18,-8.1,156.84,82.69,79,100,9.84,moderate rain,0.0,0.0
497,Havre-Saint-Pierre,CA,2020-05-10 16:23:18,50.23,-63.6,41.0,60,90,38.03,overcast clouds,0.0,0.0
498,Shellbrook,CA,2020-05-10 16:23:18,53.22,-106.4,37.4,44,20,4.7,few clouds,0.0,0.0
499,Christchurch,NZ,2020-05-10 16:22:55,-43.53,172.63,51.01,100,90,2.24,fog,0.0,0.0
500,Nanpiao,CN,2020-05-10 16:23:19,41.1,120.75,57.58,32,38,9.13,scattered clouds,0.0,0.0
501,Karratha,AU,2020-05-10 16:18:36,-20.74,116.85,78.08,35,95,14.5,overcast clouds,0.0,0.0
502,Aykhal,RU,2020-05-10 16:23:19,66.0,111.5,24.8,85,90,11.18,overcast clouds,0.0,0.0
503,Lowestoft,GB,2020-05-10 16:23:20,52.48,1.75,48.0,85,100,15.99,light rain,0.0,0.0
504,Desaguadero,PE,2020-05-10 16:23:20,-16.57,-69.04,54.63,46,50,3.42,scattered clouds,0.0,0.0
505,Jatai,BR,2020-05-10 16:23:20,-17.88,-51.71,79.48,60,0,7.07,clear sky,0.0,0.0
506,San Ramon,US,2020-05-10 16:19:27,37.78,-121.98,62.01,67,1,5.82,clear sky,0.0,0.0
507,Meulaboh,ID,2020-05-10 16:23:20,4.14,96.13,78.96,88,100,3.33,moderate rain,0.0,0.0
508,Along,IN,2020-05-10 16:23:20,28.17,94.77,69.55,74,66,2.62,light rain,0.0,0.0
509,Yeppoon,AU,2020-05-10 16:23:21,-23.13,150.73,66.2,52,40,8.05,scattered clouds,0.0,0.0
510,Brits,ZA,2020-05-10 16:19:19,-25.63,27.78,69.8,39,0,4.7,clear sky,0.0,0.0
511,Basco,PH,2020-05-10 16:20:52,20.45,121.97,83.5,74,55,3.4,broken clouds,0.0,0.0
512,Newport,GB,2020-05-10 16:23:21,51.59,-3.0,52.0,77,100,3.0,overcast clouds,0.0,0.0
513,Verkhnevilyuysk,RU,2020-05-10 16:23:21,63.45,120.32,28.72,98,0,5.12,clear sky,0.0,0.0
514,Male,MV,2020-05-10 16:20:24,4.17,73.51,86.0,79,75,5.82,thunderstorm,0.0,0.0
515,Coruripe,BR,2020-05-10 16:23:22,-10.13,-36.18,81.19,78,29,12.19,moderate rain,0.0,0.0
516,Tulum,MX,2020-05-10 16:23:22,20.22,-87.47,80.6,83,90,3.36,overcast clouds,0.0,0.0
517,Grammichele,IT,2020-05-10 16:23:22,37.21,14.64,75.2,38,84,9.17,broken clouds,0.0,0.0
518,Lexington,US,2020-05-10 16:22:51,37.99,-84.48,59.0,44,20,18.34,few clouds,0.0,0.0
519,Omboue,GA,2020-05-10 16:23:22,-1.57,9.26,75.49,95,100,5.12,moderate rain,0.0,0.0
520,Seminole,US,2020-05-10 16:23:23,28.71,-81.21,77.0,65,1,14.99,clear sky,0.0,0.0
521,Walvis Bay,NA,2020-05-10 16:23:23,-22.96,14.51,82.4,26,0,11.41,clear sky,0.0,0.0
522,Tautira,PF,2020-05-10 16:23:23,-17.73,-149.15,77.0,83,20,2.24,few clouds,0.0,0.0
523,Sirajganj,BD,2020-05-10 16:23:23,24.45,89.72,89.98,53,34,4.27,scattered clouds,0.0,0.0
524,Pietarsaari,FI,2020-05-10 16:23:23,63.65,22.68,37.4,100,90,3.36,moderate rain,0.0,0.0
525,Olafsvik,IS,2020-05-10 16:19:45,64.89,-23.71,42.24,68,94,17.34,overcast clouds,0.0,0.0
526,Katsuura,JP,2020-05-10 16:23:24,35.13,140.3,70.0,100,75,18.34,light intensity drizzle,0.0,0.0
527,Yanam,IN,2020-05-10 16:23:24,16.73,82.22,83.59,75,63,4.47,broken clouds,0.0,0.0
528,Gayeri,BF,2020-05-10 16:23:24,12.65,0.49,105.87,14,46,8.37,scattered clouds,0.0,0.0
529,Port-Cartier,CA,2020-05-10 16:23:24,50.03,-66.87,44.01,41,75,17.22,broken clouds,0.0,0.0
530,Poum,NC,2020-05-10 16:20:02,-20.23,164.02,74.55,73,5,7.85,clear sky,0.0,0.0
531,Gazanjyk,TM,2020-05-10 16:23:25,39.24,55.52,85.28,27,16,9.95,few clouds,0.0,0.0
532,Mehamn,NO,2020-05-10 16:18:25,71.04,27.85,33.8,64,23,8.05,few clouds,0.0,0.0
533,Ulladulla,AU,2020-05-10 16:23:25,-35.35,150.47,46.4,65,0,11.41,clear sky,0.0,0.0
534,San Jeronimo,PE,2020-05-10 16:23:25,-11.95,-75.28,60.84,53,2,1.83,light rain,0.0,0.0
535,Puerto Ayacucho,VE,2020-05-10 16:20:42,5.66,-67.62,87.8,58,40,9.17,scattered clouds,0.0,0.0
536,Hibbing,US,2020-05-10 16:23:26,47.43,-92.94,41.0,41,75,13.87,broken clouds,0.0,0.0
537,The Pas,CA,2020-05-10 16:18:51,53.83,-101.25,30.2,46,1,10.29,clear sky,0.0,0.0
538,Gorom-Gorom,BF,2020-05-10 16:23:26,14.44,-0.24,106.97,11,34,6.2,scattered clouds,0.0,0.0
539,Alyangula,AU,2020-05-10 16:23:26,-13.85,136.42,73.4,100,5,14.36,clear sky,0.0,0.0
540,Tual,ID,2020-05-10 16:23:26,-5.67,132.75,84.16,78,86,16.13,overcast clouds,0.0,0.0
541,Itarema,BR,2020-05-10 16:23:27,-2.92,-39.92,80.44,87,100,11.12,moderate rain,0.0,0.0
542,Lacarak,RS,2020-05-10 16:23:27,45.0,19.57,80.01,47,87,0.43,overcast clouds,0.0,0.0
543,Gayny,RU,2020-05-10 16:23:27,60.31,54.32,56.73,86,46,5.3,heavy intensity rain,0.0,0.0
544,Samarai,PG,2020-05-10 16:23:27,-10.62,150.67,79.75,83,57,14.45,broken clouds,0.0,0.0
545,Coahuayana,MX,2020-05-10 16:23:27,18.73,-103.68,86.0,45,5,11.41,clear sky,0.0,0.0
546,Lavrentiya,RU,2020-05-10 16:23:28,65.58,-171.0,32.27,95,78,6.91,broken clouds,0.0,0.0
547,Sahuaripa,MX,2020-05-10 16:23:28,29.05,-109.23,84.88,24,0,2.17,clear sky,0.0,0.0
548,Shevchenkove,UA,2020-05-10 16:23:28,49.7,37.17,55.02,78,100,3.38,overcast clouds,0.0,0.0
549,Santo Tomas,PH,2020-05-10 16:23:28,14.11,121.14,82.99,88,40,2.24,scattered clouds,0.0,0.0
550,Peniche,PT,2020-05-10 16:23:28,39.36,-9.38,64.0,78,91,15.99,overcast clouds,0.0,0.0
551,Cabedelo,BR,2020-05-10 16:23:28,-6.98,-34.83,87.8,62,40,11.41,scattered clouds,0.0,0.0
552,Sinnamary,GF,2020-05-10 16:23:29,5.38,-52.95,79.77,90,50,13.47,moderate rain,0.0,0.0
553,Grand Baie,MU,2020-05-10 16:23:29,-20.02,57.58,71.01,74,31,3.0,scattered clouds,0.0,0.0
554,Ordu,TR,2020-05-10 16:23:29,40.91,37.68,43.92,93,0,2.04,clear sky,0.0,0.0
555,Tutoia,BR,2020-05-10 16:23:30,-2.76,-42.27,81.66,83,35,3.36,moderate rain,0.0,0.0
556,Ahuimanu,US,2020-05-10 16:19:28,21.44,-157.84,82.4,54,20,8.05,few clouds,0.0,0.0
557,Karatau,KZ,2020-05-10 16:23:30,43.17,70.47,64.94,42,24,8.03,few clouds,0.0,0.0
558,Atikokan,CA,2020-05-10 16:20:23,48.76,-91.62,36.09,73,100,10.98,overcast clouds,0.0,0.0
559,Bertoua,CM,2020-05-10 16:23:30,4.58,13.68,83.35,63,40,3.44,scattered clouds,0.0,0.0
560,Treinta Y Tres,UY,2020-05-10 16:23:31,-33.23,-54.38,72.23,55,50,15.55,scattered clouds,0.0,0.0
561,Pedernales,DO,2020-05-10 16:23:31,18.04,-71.74,87.8,70,40,17.22,scattered clouds,0.0,0.0
562,Guaruja,BR,2020-05-10 16:19:27,-23.99,-46.26,82.4,48,0,6.93,clear sky,0.0,0.0
563,Kasempa,ZM,2020-05-10 16:23:31,-13.46,25.83,66.74,63,23,6.08,few clouds,0.0,0.0
564,Dauphin,CA,2020-05-10 16:23:31,51.15,-100.05,37.4,47,1,16.11,clear sky,0.0,0.0
565,Naryan-Mar,RU,2020-05-10 16:23:31,67.67,53.09,34.92,97,100,8.7,overcast clouds,0.0,0.0
566,Sijunjung,ID,2020-05-10 16:23:32,-0.69,100.95,74.89,91,95,1.95,overcast clouds,0.0,0.0
567,Madison,US,2020-05-10 16:23:32,34.73,-86.57,64.0,39,1,6.93,clear sky,0.0,0.0
568,Nchelenge,ZM,2020-05-10 16:23:32,-9.35,28.73,74.71,63,100,6.02,overcast clouds,0.0,0.0
569,Chekhov,RU,2020-05-10 16:23:32,55.14,37.47,59.0,41,84,13.42,broken clouds,0.0,0.0
570,Celina,US,2020-05-10 16:23:32,40.55,-84.57,57.2,44,1,23.04,clear sky,0.0,0.0
571,Biggar,GB,2020-05-10 16:22:23,55.62,-3.52,46.4,52,40,14.99,scattered clouds,0.0,0.0
572,Rocky Mountain House,CA,2020-05-10 16:23:33,52.37,-114.92,41.04,67,100,7.4,overcast clouds,0.0,0.0
573,Hofn,IS,2020-05-10 16:23:33,64.25,-15.21,42.8,41,77,5.82,broken clouds,0.0,0.0
574,Merauke,ID,2020-05-10 16:23:33,-8.47,140.33,79.66,84,91,18.07,light rain,0.0,0.0
575,Baculin,PH,2020-05-10 16:23:33,7.45,126.58,80.17,78,100,6.76,light rain,0.0,0.0
576,Tiarei,PF,2020-05-10 16:23:34,-17.53,-149.33,77.0,83,20,2.24,few clouds,0.0,0.0
577,Totness,SR,2020-05-10 16:23:34,5.88,-56.32,82.11,80,20,13.15,light rain,0.0,0.0
578,Junnar,IN,2020-05-10 16:23:34,19.2,73.88,79.56,51,36,8.61,scattered clouds,0.0,0.0
579,Urubicha,BO,2020-05-10 16:23:34,-15.38,-62.95,86.38,45,89,5.97,overcast clouds,0.0,0.0
580,Waddan,LY,2020-05-10 16:23:35,29.16,16.14,101.8,8,41,8.9,scattered clouds,0.0,0.0
581,Barhiya,IN,2020-05-10 16:23:35,25.28,86.03,92.88,19,0,9.08,clear sky,0.0,0.0
582,Rosetta,EG,2020-05-10 16:23:35,31.4,30.42,71.6,64,0,13.87,clear sky,0.0,0.0
