City,Country,Date,Lat,Lng,Max Temp,Humidity,Cloudiness,Wind Speed,Current Description,Rain Inches (last hour),Snow Inches (last hour)
Chipinge,ZW,2020-05-10 23:26:29,-20.19,32.62,50.32,95,54,1.95,broken clouds,0.0,0.0
Rikitea,PF,2020-05-10 23:30:29,-23.12,-134.97,75.07,80,22,8.68,few clouds,0.0,0.0
Yellowknife,CA,2020-05-10 23:26:43,62.46,-114.35,43.0,44,40,9.17,scattered clouds,0.0,0.0
Zhezkazgan,KZ,2020-05-10 23:30:29,47.8,67.71,59.34,66,4,3.89,clear sky,0.0,0.0
Ilulissat,GL,2020-05-10 23:30:29,69.22,-51.1,32.0,96,100,9.17,overcast clouds,0.0,0.0
Vila Velha,BR,2020-05-10 23:30:29,-20.33,-40.29,71.6,78,75,3.36,broken clouds,0.0,0.0
Hobart,AU,2020-05-10 23:26:26,-42.88,147.33,52.0,76,75,10.29,broken clouds,0.0,0.0
Chuy,UY,2020-05-10 23:30:30,-33.7,-53.46,63.57,78,0,8.57,clear sky,0.0,0.0
Bhikangaon,IN,2020-05-10 23:30:30,21.87,75.95,82.96,39,14,4.81,few clouds,0.0,0.0
Tamiahua,MX,2020-05-10 23:30:30,21.27,-97.45,79.61,74,23,12.1,few clouds,0.0,0.0
Khatanga,RU,2020-05-10 23:30:30,71.97,102.5,29.14,98,93,6.11,overcast clouds,0.0,0.0
Meulaboh,ID,2020-05-10 23:30:30,4.14,96.13,77.88,88,97,4.36,light rain,0.97,0.0
Mishan,CN,2020-05-10 23:30:31,45.55,131.88,55.36,71,70,15.5,light rain,0.19,0.0
Bredasdorp,ZA,2020-05-10 23:33:34,-34.53,20.04,59.0,93,0,2.24,clear sky,0.0,0.0
Butaritari,KI,2020-05-10 23:30:31,3.07,172.79,83.66,76,13,8.52,few clouds,0.0,0.0
Hilo,US,2020-05-10 23:25:48,19.73,-155.09,82.4,58,75,10.29,broken clouds,0.0,0.0
Bluff,NZ,2020-05-10 23:30:31,-46.6,168.33,53.94,73,99,3.11,overcast clouds,0.0,0.0
Siniscola,IT,2020-05-10 23:30:31,40.57,9.69,60.28,87,97,4.99,light rain,0.83,0.0
Moyale,KE,2020-05-10 23:30:32,3.52,39.06,66.36,100,65,5.06,light rain,0.21,0.0
Port Blair,IN,2020-05-10 23:31:37,11.67,92.75,83.77,73,100,2.55,overcast clouds,0.0,0.0
Sitka,US,2020-05-10 23:33:35,57.05,-135.33,71.6,24,75,11.41,broken clouds,0.0,0.0
Broome,US,2020-05-10 23:33:35,42.25,-75.83,53.6,34,90,12.75,overcast clouds,0.0,0.0
Launceston,AU,2020-05-10 23:27:41,-41.45,147.17,48.99,93,90,10.29,overcast clouds,0.0,0.0
Namatanai,PG,2020-05-10 23:30:33,-3.67,152.43,86.38,68,83,6.55,broken clouds,0.0,0.0
Mataura,NZ,2020-05-10 23:30:33,-46.19,168.86,55.67,65,80,1.3,broken clouds,0.0,0.0
Vaini,TO,2020-05-10 23:30:33,-21.2,-175.2,82.4,65,20,17.22,few clouds,0.0,0.0
Thompson,CA,2020-05-10 23:30:33,55.74,-97.86,32.0,88,5,14.99,clear sky,0.0,0.0
Barrow,US,2020-05-10 23:30:11,71.29,-156.79,35.6,74,1,4.7,clear sky,0.0,0.0
Qaanaaq,GL,2020-05-10 23:30:33,77.48,-69.36,8.04,82,0,2.57,clear sky,0.0,0.0
Airai,TL,2020-05-10 23:30:34,-8.93,125.41,66.42,82,17,4.03,few clouds,0.0,0.0
Punta Arenas,CL,2020-05-10 23:26:47,-53.15,-70.92,42.8,87,40,8.05,scattered clouds,0.0,0.0
Tasiilaq,GL,2020-05-10 23:30:34,65.61,-37.64,26.6,92,17,5.82,mist,0.0,0.0
Castro,BR,2020-05-10 23:28:30,-24.79,-50.01,55.81,90,0,4.65,clear sky,0.0,0.0
Ushuaia,AR,2020-05-10 23:30:14,-54.8,-68.3,42.8,87,75,11.41,broken clouds,0.0,0.0
Kota Kinabalu,MY,2020-05-10 23:30:34,5.97,116.07,80.6,83,20,5.82,few clouds,0.0,0.0
Albany,US,2020-05-10 23:25:48,42.6,-73.97,54.0,48,98,4.97,overcast clouds,0.0,0.0
Quatre Cocos,MU,2020-05-10 23:30:35,-20.21,57.76,71.6,56,20,11.41,few clouds,0.0,0.0
Hermanus,ZA,2020-05-10 23:30:35,-34.42,19.23,55.99,94,0,3.65,clear sky,0.0,0.0
Muros,ES,2020-05-10 23:30:33,42.78,-9.06,53.01,91,7,1.01,clear sky,0.0,0.0
Klaksvik,FO,2020-05-10 23:30:35,62.23,-6.59,30.2,68,46,4.7,scattered clouds,0.0,0.0
Iqaluit,CA,2020-05-10 23:30:35,63.75,-68.51,26.6,63,75,29.97,broken clouds,0.0,0.0
Geraldton,AU,2020-05-10 23:30:36,-28.77,114.6,51.8,81,17,5.82,few clouds,0.0,0.0
Dingle,PH,2020-05-10 23:30:36,11.0,122.67,85.6,66,99,6.11,overcast clouds,0.0,0.0
Lebu,CL,2020-05-10 23:30:36,-37.62,-73.65,53.11,82,15,4.88,few clouds,0.0,0.0
Kattivakkam,IN,2020-05-10 23:30:36,13.22,80.32,86.0,88,40,2.24,scattered clouds,0.0,0.0
Port Lincoln,AU,2020-05-10 23:30:36,-34.73,135.87,56.19,65,49,12.12,scattered clouds,0.0,0.0
Sistranda,NO,2020-05-10 23:30:37,63.73,8.83,35.6,74,75,20.8,shower sleet,0.0,0.0
Severo-Kurilsk,RU,2020-05-10 23:30:37,50.68,156.12,35.29,84,75,2.66,broken clouds,0.0,0.0
Mar Del Plata,AR,2020-05-10 23:26:39,-38.0,-57.56,55.0,81,36,6.93,scattered clouds,0.0,0.0
Pevek,RU,2020-05-10 23:30:07,69.7,170.31,36.81,81,4,16.49,clear sky,0.0,0.0
Banda Aceh,ID,2020-05-10 23:26:35,5.56,95.32,79.25,83,100,6.55,light rain,0.8,0.0
Laguna,US,2020-05-10 23:26:47,38.42,-121.42,81.0,44,1,12.75,clear sky,0.0,0.0
Katsuura,JP,2020-05-10 23:30:15,35.13,140.3,69.01,94,40,6.93,scattered clouds,0.0,0.0
Severnyy-Kospashskiy,RU,2020-05-10 23:30:38,59.09,57.8,51.01,74,96,2.53,overcast clouds,0.0,0.0
Lagoa,PT,2020-05-10 23:30:38,39.05,-27.98,57.74,71,52,23.04,broken clouds,0.0,0.0
Port Alfred,ZA,2020-05-10 23:30:38,-33.59,26.89,71.01,43,0,8.21,clear sky,0.0,0.0
Tibati,CM,2020-05-10 23:30:38,6.47,12.63,69.42,92,86,1.92,overcast clouds,0.0,0.0
New Norfolk,AU,2020-05-10 23:30:38,-42.78,147.06,51.01,87,86,1.99,light rain,0.23,0.0
Caxito,AO,2020-05-10 23:30:39,-8.58,13.66,80.6,88,40,4.7,scattered clouds,0.0,0.0
Ciudad Bolivar,VE,2020-05-10 23:30:39,8.12,-63.55,87.82,45,62,12.91,broken clouds,0.0,0.0
Peniche,PT,2020-05-10 23:30:39,39.36,-9.38,61.0,91,97,11.01,moderate rain,1.43,0.0
Tessalit,ML,2020-05-10 23:30:39,20.2,1.01,87.22,12,42,7.29,scattered clouds,0.0,0.0
Puerto Del Rosario,ES,2020-05-10 23:30:39,28.5,-13.86,68.0,72,3,16.11,clear sky,0.0,0.0
Tiksi,RU,2020-05-10 23:30:40,71.69,128.87,26.19,98,97,8.72,overcast clouds,0.0,0.0
Kaitangata,NZ,2020-05-10 23:30:12,-46.28,169.85,57.0,65,39,3.0,scattered clouds,0.0,0.0
Juneau,US,2020-05-10 23:28:43,58.3,-134.42,73.4,43,40,10.29,scattered clouds,0.0,0.0
Mezhdurechenskiy,RU,2020-05-10 23:30:40,59.6,65.93,61.77,58,90,5.46,overcast clouds,0.0,0.0
Bathsheba,BB,2020-05-10 23:30:41,13.22,-59.52,80.6,74,40,17.22,light intensity shower rain,0.0,0.0
Provideniya,RU,2020-05-10 23:30:41,64.38,-173.3,36.7,89,100,9.69,overcast clouds,0.0,0.0
Bukama,CD,2020-05-10 23:30:41,-9.2,25.85,67.66,73,16,2.33,few clouds,0.0,0.0
Hun,LY,2020-05-10 23:30:41,29.13,15.95,81.52,15,82,12.17,broken clouds,0.0,0.0
Chokurdakh,RU,2020-05-10 23:30:13,70.63,147.92,33.48,100,99,12.93,overcast clouds,0.0,0.0
Kalmunai,LK,2020-05-10 23:30:41,7.42,81.82,81.79,76,99,2.48,overcast clouds,0.0,0.0
Cape Town,ZA,2020-05-10 23:26:21,-33.93,18.42,63.0,100,90,4.7,fog,0.0,0.0
Touros,BR,2020-05-10 23:27:10,-5.2,-35.46,77.0,94,20,3.36,few clouds,0.0,0.0
Puerto Ayora,EC,2020-05-10 23:30:42,-0.74,-90.35,82.4,74,20,18.34,few clouds,0.0,0.0
Kargasok,RU,2020-05-10 23:30:42,59.06,80.86,63.97,54,82,3.42,broken clouds,0.0,0.0
Cabo San Lucas,MX,2020-05-10 23:27:53,22.89,-109.91,91.0,15,40,13.87,scattered clouds,0.0,0.0
Kanluran,PH,2020-05-10 23:30:43,14.42,120.85,87.01,79,20,4.7,few clouds,0.0,0.0
Rio Gallegos,AR,2020-05-10 23:26:38,-51.62,-69.22,44.6,81,75,12.75,light rain,0.0,0.0
Jamestown,US,2020-05-10 23:26:34,42.1,-79.24,53.01,50,90,9.17,overcast clouds,0.0,0.0
Torbay,CA,2020-05-10 23:30:17,47.67,-52.73,37.99,91,90,31.09,overcast clouds,0.0,0.0
Trairi,BR,2020-05-10 23:27:50,-3.28,-39.27,76.15,89,100,6.17,light rain,0.48,0.0
Pacific Grove,US,2020-05-10 23:30:00,36.62,-121.92,69.01,52,1,9.17,clear sky,0.0,0.0
Narsaq,GL,2020-05-10 23:30:18,60.92,-46.05,50.0,57,60,0.89,broken clouds,0.0,0.0
Nikolskoye,RU,2020-05-10 23:30:07,59.7,30.79,44.6,52,52,8.95,broken clouds,0.0,0.0
Arraial Do Cabo,BR,2020-05-10 23:30:44,-22.97,-42.03,72.32,67,0,21.83,clear sky,0.0,0.0
Busselton,AU,2020-05-10 23:25:47,-33.65,115.33,48.0,75,72,2.82,broken clouds,0.0,0.0
Kruisfontein,ZA,2020-05-10 23:30:44,-34.0,24.73,59.49,52,0,3.62,clear sky,0.0,0.0
Kodiak,US,2020-05-10 23:30:11,57.79,-152.41,46.4,87,90,4.7,overcast clouds,0.0,0.0
San Patricio,MX,2020-05-10 23:30:45,19.22,-104.7,80.6,78,40,11.41,scattered clouds,0.0,0.0
Valdemarpils,LV,2020-05-10 23:30:45,57.37,22.59,46.4,75,88,8.88,overcast clouds,0.0,0.0
Saint-Philippe,RE,2020-05-10 23:30:45,-21.36,55.77,69.8,73,75,6.93,broken clouds,0.0,0.0
Sokoto,NG,2020-05-10 23:30:45,13.06,5.24,88.34,40,83,10.25,broken clouds,0.0,0.0
Hofn,IS,2020-05-10 23:30:46,64.25,-15.21,41.58,61,77,7.92,broken clouds,0.0,0.0
Natal,BR,2020-05-10 23:30:46,-5.79,-35.21,77.0,94,20,3.36,few clouds,0.0,0.0
Alofi,NU,2020-05-10 23:30:46,-19.06,-169.92,82.4,83,0,4.7,clear sky,0.0,0.0
Coahuayana,MX,2020-05-10 23:30:46,18.73,-103.68,86.0,51,40,17.22,scattered clouds,0.0,0.0
Itoman,JP,2020-05-10 23:30:46,26.12,127.67,75.2,100,75,5.82,light intensity shower rain,0.0,0.0
Nanortalik,GL,2020-05-10 23:30:46,60.14,-45.24,42.98,80,29,20.11,scattered clouds,0.0,0.0
Aosta,IT,2020-05-10 23:30:46,45.77,7.42,57.0,96,99,1.01,moderate rain,2.42,0.0
Sola,VU,2020-05-10 23:30:47,-13.88,167.55,84.2,70,90,5.82,overcast clouds,0.0,0.0
Clyde River,CA,2020-05-10 23:30:47,70.47,-68.59,14.0,78,90,4.7,overcast clouds,0.0,0.0
Bud,US,2020-05-10 23:30:47,39.45,-86.18,48.99,61,90,16.11,overcast clouds,0.0,0.0
Dicabisagan,PH,2020-05-10 23:30:47,17.08,122.42,84.33,68,6,2.28,clear sky,0.0,0.0
Anadyr,RU,2020-05-10 23:30:47,64.75,177.48,35.6,91,75,29.08,fog,0.0,0.0
Gari,RU,2020-05-10 23:30:47,59.43,62.35,55.69,82,49,5.99,scattered clouds,0.0,0.0
Padang,ID,2020-05-10 23:30:48,-0.95,100.35,79.36,77,100,3.29,overcast clouds,0.0,0.0
Semey,KZ,2020-05-10 23:30:48,50.41,80.23,59.0,67,78,4.47,broken clouds,0.0,0.0
Saint-Paul,RE,2020-05-10 23:30:48,-21.01,55.27,69.8,77,92,6.93,overcast clouds,0.0,0.0
Pisco,PE,2020-05-10 23:30:35,-13.7,-76.22,68.0,77,5,16.11,clear sky,0.0,0.0
Datong,CN,2020-05-10 23:30:48,40.09,113.29,51.91,36,26,17.98,scattered clouds,0.0,0.0
Cabra,ES,2020-05-10 23:30:49,37.47,-4.44,57.0,77,89,4.0,overcast clouds,0.0,0.0
Najran,SA,2020-05-10 23:30:49,17.49,44.13,77.0,33,0,4.7,clear sky,0.0,0.0
Oranjemund,NA,2020-05-10 23:26:36,-28.55,16.43,68.0,41,0,1.16,clear sky,0.0,0.0
Karimpur,IN,2020-05-10 23:30:49,23.97,88.62,83.37,68,41,6.04,scattered clouds,0.0,0.0
Eydhafushi,MV,2020-05-10 23:30:49,5.1,73.07,84.94,76,99,8.01,moderate rain,2.33,0.0
Harnosand,SE,2020-05-10 23:30:49,62.63,17.94,33.8,50,99,5.82,overcast clouds,0.0,0.0
Hobyo,SO,2020-05-10 23:30:49,5.35,48.53,83.44,80,57,10.22,broken clouds,0.0,0.0
Novorozhdestvenskaya,RU,2020-05-10 23:30:50,45.86,39.95,50.0,85,78,15.66,broken clouds,0.0,0.0
Xining,CN,2020-05-10 23:30:50,36.62,101.77,37.85,73,26,2.75,scattered clouds,0.0,0.0
Terrace,CA,2020-05-10 23:28:23,54.52,-128.6,71.6,17,40,11.41,scattered clouds,0.0,0.0
Tuktoyaktuk,CA,2020-05-10 23:30:10,69.45,-133.04,37.4,99,75,9.17,broken clouds,0.0,0.0
Maceio,BR,2020-05-10 23:29:47,-9.67,-35.74,75.2,100,75,4.7,broken clouds,0.0,0.0
Avarua,CK,2020-05-10 23:29:54,-21.21,-159.78,82.4,74,99,16.11,overcast clouds,0.0,0.0
Gazojak,TM,2020-05-10 23:30:51,41.19,61.4,75.24,29,81,8.66,broken clouds,0.0,0.0
Sao Sebastiao,BR,2020-05-10 23:30:51,-23.76,-45.41,66.99,77,0,6.89,clear sky,0.0,0.0
Kamenka,RU,2020-05-10 23:30:51,51.32,42.77,48.99,93,99,11.01,light rain,0.17,0.0
Wilmington,US,2020-05-10 23:30:51,34.23,-77.94,64.99,48,75,8.05,broken clouds,0.0,0.0
Saint George,US,2020-05-10 23:30:51,37.1,-113.58,90.0,19,1,25.28,thunderstorm,0.0,0.0
Tomatlan,MX,2020-05-10 23:30:51,19.93,-105.25,86.76,39,33,7.09,scattered clouds,0.0,0.0
Constitucion,CL,2020-05-10 23:29:52,-35.33,-72.42,55.11,79,5,9.19,clear sky,0.0,0.0
Lai,TD,2020-05-10 23:30:52,9.4,16.3,90.34,37,59,6.67,broken clouds,0.0,0.0
Vuktyl,RU,2020-05-10 23:30:52,63.86,57.31,44.76,83,94,7.63,overcast clouds,0.0,0.0
Tuatapere,NZ,2020-05-10 23:30:52,-46.13,167.68,56.17,73,100,3.76,overcast clouds,0.0,0.0
Bilma,NE,2020-05-10 23:30:52,18.69,12.92,83.52,12,2,8.21,clear sky,0.0,0.0
Dunedin,NZ,2020-05-10 23:30:03,-45.87,170.5,51.01,88,66,3.0,broken clouds,0.0,0.0
Faanui,PF,2020-05-10 23:30:44,-16.48,-151.75,81.73,77,93,8.43,overcast clouds,0.0,0.0
Dehloran,IR,2020-05-10 23:30:52,32.69,47.27,75.36,27,0,6.6,clear sky,0.0,0.0
Aklavik,CA,2020-05-10 23:30:53,68.22,-135.01,50.0,46,75,6.93,broken clouds,0.0,0.0
Baturaja,ID,2020-05-10 23:30:53,-4.13,104.17,76.06,91,83,0.94,broken clouds,0.0,0.0
Mercedes,AR,2020-05-10 23:30:53,-34.65,-59.43,69.01,34,25,1.99,scattered clouds,0.0,0.0
Sao Felix Do Xingu,BR,2020-05-10 23:30:53,-6.64,-51.99,74.3,95,99,1.95,overcast clouds,0.0,0.0
Antofagasta,CL,2020-05-10 23:28:49,-23.65,-70.4,60.8,82,75,12.75,broken clouds,0.0,0.0
Mnogovershinnyy,RU,2020-05-10 23:30:53,53.94,139.92,49.41,61,81,10.78,broken clouds,0.0,0.0
Vermilion,US,2020-05-10 23:26:31,40.17,-87.75,48.0,65,90,17.22,overcast clouds,0.0,0.0
Comodoro Rivadavia,AR,2020-05-10 23:29:18,-45.87,-67.5,51.8,71,40,6.93,scattered clouds,0.0,0.0
Ngunguru,NZ,2020-05-10 23:30:54,-35.62,174.5,64.0,72,91,5.99,overcast clouds,0.0,0.0
San Cristobal,VE,2020-05-10 23:30:37,7.77,-72.22,93.2,49,20,9.17,few clouds,0.0,0.0
Homer,US,2020-05-10 23:29:40,59.64,-151.55,53.01,75,1,19.46,clear sky,0.0,0.0
Nago,JP,2020-05-10 23:30:54,26.59,127.98,75.2,100,90,6.93,overcast clouds,0.0,0.0
Noumea,NC,2020-05-10 23:30:54,-22.28,166.46,77.0,61,15,2.24,few clouds,0.0,0.0
Port Elizabeth,ZA,2020-05-10 23:30:04,-33.92,25.57,55.4,66,0,3.36,clear sky,0.0,0.0
Hithadhoo,MV,2020-05-10 23:30:55,-0.6,73.08,85.24,77,99,13.02,overcast clouds,0.0,0.0
Half Moon Bay,US,2020-05-10 23:27:19,37.46,-122.43,75.0,45,40,11.41,scattered clouds,0.0,0.0
Leningradskiy,RU,2020-05-10 23:30:55,69.38,178.42,35.74,94,100,14.58,overcast clouds,0.0,0.0
Saint-Joseph,RE,2020-05-10 23:30:55,-21.37,55.62,69.8,73,75,6.93,broken clouds,0.0,0.0
Yamada,JP,2020-05-10 23:30:55,39.47,141.95,65.77,52,5,8.63,clear sky,0.0,0.0
Carutapera,BR,2020-05-10 23:30:55,-1.2,-46.02,76.89,91,25,5.68,scattered clouds,0.0,0.0
Atocha,BO,2020-05-10 23:30:56,-20.93,-66.23,49.08,43,0,4.12,clear sky,0.0,0.0
East London,ZA,2020-05-10 23:30:14,-33.02,27.91,72.16,33,0,7.74,clear sky,0.0,0.0
Atuona,PF,2020-05-10 23:30:56,-9.8,-139.03,81.19,78,19,13.85,few clouds,0.0,0.0
Flinders,AU,2020-05-10 23:30:56,-34.58,150.86,57.99,57,0,5.01,clear sky,0.0,0.0
Polyarnyy,RU,2020-05-10 23:30:56,69.2,33.45,32.0,95,75,15.66,shower snow,0.0,0.0
Changli,CN,2020-05-10 23:30:56,39.7,119.15,65.59,27,94,13.2,overcast clouds,0.0,0.0
Duzce,TR,2020-05-10 23:30:57,40.84,31.16,57.06,55,26,4.54,scattered clouds,0.0,0.0
Georgetown,MY,2020-05-10 23:27:11,5.41,100.34,78.8,94,20,5.55,thunderstorm,0.0,0.0
High Level,CA,2020-05-10 23:30:57,58.52,-117.14,51.8,23,20,10.29,few clouds,0.0,0.0
Pionerskiy,RU,2020-05-10 23:30:57,54.95,20.23,57.2,71,100,8.95,light rain,0.18,0.0
Kapaa,US,2020-05-10 23:30:09,22.08,-159.32,78.8,69,40,17.22,scattered clouds,0.0,0.0
Port Shepstone,ZA,2020-05-10 23:30:57,-30.74,30.45,68.43,42,0,7.94,clear sky,0.0,0.0
Ancud,CL,2020-05-10 23:30:57,-41.87,-73.82,52.0,87,75,6.93,broken clouds,0.0,0.0
Tahta,EG,2020-05-10 23:30:57,26.77,31.5,75.2,22,0,8.05,clear sky,0.0,0.0
Nikolayevskaya,RU,2020-05-10 23:30:58,47.61,41.5,51.94,91,94,15.26,light rain,0.47,0.0
Monrovia,LR,2020-05-10 23:30:58,6.3,-10.8,77.0,94,75,11.23,broken clouds,0.0,0.0
Chadiza,ZM,2020-05-10 23:30:58,-14.07,32.44,55.76,98,56,3.94,broken clouds,0.0,0.0
Shebunino,RU,2020-05-10 23:30:58,46.43,141.86,44.62,92,100,4.34,overcast clouds,0.0,0.0
Upernavik,GL,2020-05-10 23:30:58,72.79,-56.15,15.69,86,7,11.97,clear sky,0.0,0.0
Bubaque,GW,2020-05-10 23:30:59,11.28,-15.83,78.08,74,37,11.07,scattered clouds,0.0,0.0
Puerto Madryn,AR,2020-05-10 23:30:59,-42.77,-65.04,55.36,45,46,28.5,scattered clouds,0.0,0.0
Caraquet,CA,2020-05-10 23:30:59,47.79,-64.94,42.01,56,20,17.22,few clouds,0.0,0.0
Chimbote,PE,2020-05-10 23:30:59,-9.09,-78.58,67.87,85,30,7.47,scattered clouds,0.0,0.0
Shirokiy,RU,2020-05-10 23:31:00,49.76,129.52,51.42,48,0,6.93,clear sky,0.0,0.0
Albina,SR,2020-05-10 23:31:00,5.5,-54.05,75.45,96,100,2.89,light rain,0.2,0.0
Springbok,ZA,2020-05-10 23:31:00,-29.66,17.89,62.56,31,0,5.28,clear sky,0.0,0.0
Longyearbyen,SJ,2020-05-10 23:31:00,78.22,15.64,17.6,61,75,6.93,broken clouds,0.0,0.0
Batticaloa,LK,2020-05-10 23:31:00,7.71,81.69,81.84,78,99,2.82,overcast clouds,0.0,0.0
Balakliya,UA,2020-05-10 23:31:00,49.46,36.86,48.6,91,85,7.23,overcast clouds,0.0,0.0
Viedma,AR,2020-05-10 23:30:44,-40.81,-63.0,58.78,40,6,13.49,clear sky,0.0,0.0
Altay,CN,2020-05-10 23:31:01,47.87,88.12,58.6,33,1,6.55,clear sky,0.0,0.0
Imelda,PH,2020-05-10 23:31:01,7.65,123.95,85.15,67,36,1.34,scattered clouds,0.0,0.0
Buala,SB,2020-05-10 23:31:01,-8.14,159.59,85.51,71,83,6.08,light rain,0.59,0.0
Esperance,AU,2020-05-10 23:30:42,-33.87,121.9,50.0,57,82,10.29,broken clouds,0.0,0.0
Inta,RU,2020-05-10 23:31:01,66.03,60.17,36.12,94,25,4.97,scattered clouds,0.0,0.0
Cockburn Town,TC,2020-05-10 23:29:38,21.46,-71.14,80.8,80,39,25.61,scattered clouds,0.0,0.0
Te Anau,NZ,2020-05-10 23:30:36,-45.42,167.72,50.29,86,100,1.57,light rain,0.55,0.0
Sovetskiy,RU,2020-05-10 23:31:02,61.36,63.58,55.02,71,2,6.08,clear sky,0.0,0.0
Kathmandu,NP,2020-05-10 23:26:06,27.72,85.32,59.0,87,75,3.36,broken clouds,0.0,0.0
Waddan,LY,2020-05-10 23:31:02,29.16,16.14,80.98,15,84,12.8,broken clouds,0.0,0.0
Carnarvon,AU,2020-05-10 23:31:03,-24.87,113.63,71.83,56,11,5.82,few clouds,0.0,0.0
Coihaique,CL,2020-05-10 23:31:03,-45.58,-72.07,41.0,80,40,2.24,scattered clouds,0.0,0.0
Golden,US,2020-05-10 23:30:08,39.76,-105.22,64.0,29,40,8.1,scattered clouds,0.0,0.0
Bethel,US,2020-05-10 23:31:03,41.37,-73.41,59.0,30,1,10.29,clear sky,0.0,0.0
Obo,CF,2020-05-10 23:31:03,5.4,26.49,69.8,93,50,2.66,light rain,0.16,0.0
Sao Miguel Do Araguaia,BR,2020-05-10 23:31:03,-13.28,-50.16,73.27,84,42,3.91,scattered clouds,0.0,0.0
Ajdabiya,LY,2020-05-10 23:26:15,30.76,20.23,76.8,16,0,13.53,clear sky,0.0,0.0
Wexford,IE,2020-05-10 23:31:04,52.33,-6.46,46.0,65,47,10.0,scattered clouds,0.0,0.0
Nanakuli,US,2020-05-10 23:31:04,21.39,-158.15,87.8,54,75,9.17,broken clouds,0.0,0.0
San Andres,CO,2020-05-10 23:30:02,12.58,-81.7,84.2,79,40,10.29,scattered clouds,0.0,0.0
Saint Anthony,US,2020-05-10 23:30:17,45.02,-93.22,48.2,39,90,11.41,overcast clouds,0.0,0.0
Saskylakh,RU,2020-05-10 23:30:14,71.92,114.08,20.23,96,67,10.67,broken clouds,0.0,0.0
Tilichiki,RU,2020-05-10 23:31:04,60.47,166.1,31.42,100,100,2.21,overcast clouds,0.0,0.0
Mahebourg,MU,2020-05-10 23:31:04,-20.41,57.7,71.6,56,20,11.41,few clouds,0.0,0.0
Gambela,ET,2020-05-10 23:31:05,8.25,34.58,78.3,70,100,4.47,overcast clouds,0.0,0.0
Mitsamiouli,KM,2020-05-10 23:31:05,-11.38,43.28,80.65,76,5,5.06,moderate rain,1.09,0.0
Souillac,MU,2020-05-10 23:31:05,-20.52,57.52,71.6,56,20,11.41,few clouds,0.0,0.0
Batote,IN,2020-05-10 23:31:05,33.12,75.32,56.95,58,73,8.21,broken clouds,0.0,0.0
Dikson,RU,2020-05-10 23:31:05,73.51,80.55,21.36,98,1,10.56,clear sky,0.0,0.0
Ayaviri,PE,2020-05-10 23:31:05,-14.89,-70.59,49.33,50,79,4.47,broken clouds,0.0,0.0
Brae,GB,2020-05-10 23:31:06,60.4,-1.35,37.4,55,96,18.34,overcast clouds,0.0,0.0
Cascais,PT,2020-05-10 23:31:06,38.7,-9.42,63.0,90,97,17.07,light rain,0.38,0.0
Plouzane,FR,2020-05-10 23:31:06,48.38,-4.62,51.8,87,90,28.86,overcast clouds,0.0,0.0
Daru,PG,2020-05-10 23:31:06,-9.08,143.21,82.49,77,100,17.31,overcast clouds,0.0,0.0
Silleda,ES,2020-05-10 23:31:06,42.7,-8.25,51.8,93,40,2.24,scattered clouds,0.0,0.0
Buribay,RU,2020-05-10 23:31:06,51.96,58.16,56.59,54,100,3.94,overcast clouds,0.0,0.0
Chicama,PE,2020-05-10 23:31:06,-7.84,-79.15,70.95,75,36,6.08,scattered clouds,0.0,0.0
Cap Malheureux,MU,2020-05-10 23:31:07,-19.98,57.61,66.99,70,65,1.99,broken clouds,0.0,0.0
Nome,US,2020-05-10 23:30:41,64.5,-165.41,55.0,53,90,6.93,overcast clouds,0.0,0.0
Faya,SA,2020-05-10 23:31:07,18.39,42.45,66.2,72,1,1.54,clear sky,0.0,0.0
Cayenne,GF,2020-05-10 23:31:07,4.93,-52.33,75.2,100,75,2.24,light rain,0.0,0.0
Iranshahr,IR,2020-05-10 23:31:07,27.2,60.68,84.27,20,26,3.42,scattered clouds,0.0,0.0
Kyzyl-Suu,KG,2020-05-10 23:31:07,42.34,78.0,48.96,52,15,6.82,few clouds,0.0,0.0
Sinop,TR,2020-05-10 23:31:08,41.77,34.87,49.32,62,39,7.65,scattered clouds,0.0,0.0
Inuvik,CA,2020-05-10 23:27:09,68.35,-133.72,50.0,46,75,6.93,broken clouds,0.0,0.0
Chumikan,RU,2020-05-10 23:31:08,54.72,135.31,32.61,96,100,16.73,snow,0.0,1.23
Bonavista,CA,2020-05-10 23:31:08,48.65,-53.11,35.83,83,92,25.14,overcast clouds,0.0,0.0
Sao Joao Da Barra,BR,2020-05-10 23:30:07,-21.64,-41.05,70.21,68,0,9.8,clear sky,0.0,0.0
Maloy,NO,2020-05-10 23:31:08,61.94,5.11,37.4,84,36,14.99,light intensity shower rain,0.0,0.0
Rudbar,AF,2020-05-10 23:31:09,30.15,62.6,86.34,14,48,6.6,scattered clouds,0.0,0.0
Waingapu,ID,2020-05-10 23:31:09,-9.66,120.26,80.82,74,13,13.71,few clouds,0.0,0.0
Cherskiy,RU,2020-05-10 23:31:09,68.75,161.3,41.63,66,5,20.02,clear sky,0.0,0.0
Norman Wells,CA,2020-05-10 23:31:09,65.28,-126.83,57.2,41,40,14.99,scattered clouds,0.0,0.0
Changji,CN,2020-05-10 23:31:09,44.02,87.32,64.4,16,69,4.47,broken clouds,0.0,0.0
Guangyuan,CN,2020-05-10 23:31:09,32.44,105.82,54.0,34,84,20.0,broken clouds,0.0,0.0
Krasnoselkup,RU,2020-05-10 23:31:10,65.7,82.47,36.52,85,3,12.86,clear sky,0.0,0.0
Temiscaming,CA,2020-05-10 23:31:10,46.72,-79.1,44.01,48,90,10.29,overcast clouds,0.0,0.0
Praia Da Vitoria,PT,2020-05-10 23:31:10,38.73,-27.07,59.0,67,40,20.29,scattered clouds,0.0,0.0
Bin Qirdan,TN,2020-05-10 23:31:10,33.14,11.22,75.16,48,71,10.98,broken clouds,0.0,0.0
La Ronge,CA,2020-05-10 23:31:10,55.1,-105.28,41.0,27,20,9.17,few clouds,0.0,0.0
Ugoofaaru,MV,2020-05-10 23:31:10,5.67,73.0,84.72,78,98,10.04,moderate rain,1.15,0.0
Susuman,RU,2020-05-10 23:31:11,62.78,148.17,31.42,93,97,4.07,overcast clouds,0.0,0.0
Korla,CN,2020-05-10 23:31:11,41.76,86.15,65.08,23,98,12.3,overcast clouds,0.0,0.0
Angoram,PG,2020-05-10 23:31:11,-4.06,144.07,82.85,90,99,3.02,moderate rain,1.11,0.0
Buraydah,SA,2020-05-10 23:31:11,26.33,43.98,80.6,39,20,6.93,dust,0.0,0.0
Ostrovnoy,RU,2020-05-10 23:31:11,68.05,39.51,31.78,96,100,19.57,overcast clouds,0.0,0.0
Belyy Yar,RU,2020-05-10 23:31:11,53.6,91.39,41.0,86,0,2.8,clear sky,0.0,0.0
Alice Springs,AU,2020-05-10 23:28:15,-23.7,133.88,53.6,43,86,9.17,overcast clouds,0.0,0.0
Sept-Iles,CA,2020-05-10 23:29:17,50.2,-66.38,43.0,45,75,14.99,broken clouds,0.0,0.0
Vanimo,PG,2020-05-10 23:31:12,-2.67,141.3,84.81,75,86,2.35,light rain,0.8,0.0
Isangel,VU,2020-05-10 23:30:22,-19.55,169.27,77.0,69,40,8.3,scattered clouds,0.0,0.0
Byron Bay,AU,2020-05-10 23:27:15,-28.65,153.62,62.6,51,40,11.41,scattered clouds,0.0,0.0
Lucapa,AO,2020-05-10 23:31:12,-8.42,20.74,67.17,78,94,2.24,overcast clouds,0.0,0.0
Dera Bugti,PK,2020-05-10 23:31:12,29.03,69.15,81.59,22,9,1.25,clear sky,0.0,0.0
Hualmay,PE,2020-05-10 23:31:13,-11.1,-77.61,67.06,83,25,8.37,scattered clouds,0.0,0.0
Bambous Virieux,MU,2020-05-10 23:31:13,-20.34,57.76,71.6,56,20,11.41,few clouds,0.0,0.0
Ponta Do Sol,PT,2020-05-10 23:30:29,32.67,-17.1,66.2,68,20,4.7,few clouds,0.0,0.0
Murgab,TM,2020-05-10 23:31:13,37.5,61.97,68.0,64,0,8.48,clear sky,0.0,0.0
Pangody,RU,2020-05-10 23:31:13,65.85,74.49,35.76,94,21,6.53,few clouds,0.0,0.0
Pustoshka,RU,2020-05-10 23:31:13,56.34,29.37,44.08,77,12,4.56,few clouds,0.0,0.0
Marau,BR,2020-05-10 23:31:13,-28.45,-52.2,59.27,83,50,4.09,scattered clouds,0.0,0.0
Egvekinot,RU,2020-05-10 23:31:14,66.32,-179.17,31.8,100,100,3.76,snow,0.0,0.63
Novosergiyevka,RU,2020-05-10 23:31:14,52.09,53.65,53.28,77,100,5.7,overcast clouds,0.0,0.0
Paamiut,GL,2020-05-10 23:31:14,61.99,-49.67,43.09,78,79,24.52,broken clouds,0.0,0.0
Surt,LY,2020-05-10 23:31:14,31.21,16.59,82.71,17,79,22.7,broken clouds,0.0,0.0
Summerside,CA,2020-05-10 23:29:49,46.4,-63.79,39.99,34,93,19.86,overcast clouds,0.0,0.0
Khutar,IN,2020-05-10 23:31:14,28.2,80.28,79.66,46,8,7.29,clear sky,0.0,0.0
Los Llanos De Aridane,ES,2020-05-10 23:31:15,28.66,-17.92,69.8,73,23,13.87,few clouds,0.0,0.0
Robertson,US,2020-05-10 23:31:15,36.52,-86.87,69.01,32,20,18.34,few clouds,0.0,0.0
Tahoua,NE,2020-05-10 23:31:15,14.89,5.27,85.21,49,80,11.68,broken clouds,0.0,0.0
Huaihua,CN,2020-05-10 23:31:15,27.55,109.96,69.62,80,97,3.47,overcast clouds,0.0,0.0
Fort Nelson,CA,2020-05-10 23:31:15,58.81,-122.7,55.4,30,40,12.75,scattered clouds,0.0,0.0
Dharchula,IN,2020-05-10 23:31:15,29.85,80.53,57.42,56,58,6.93,broken clouds,0.0,0.0
Okha,RU,2020-05-10 23:31:16,53.57,142.95,49.73,63,100,10.38,overcast clouds,0.0,0.0
Bambanglipuro,ID,2020-05-10 23:31:16,-7.95,110.28,78.19,89,100,9.4,light rain,0.78,0.0
Kochi,IN,2020-05-10 23:31:16,9.94,76.26,80.6,83,40,7.72,haze,0.0,0.0
Estelle,US,2020-05-10 23:31:16,29.85,-90.11,79.0,41,1,6.8,clear sky,0.0,0.0
Gaozhou,CN,2020-05-10 23:31:16,21.94,110.85,81.77,81,31,4.74,light rain,0.4,0.0
Malang,ID,2020-05-10 23:31:17,-7.98,112.63,76.26,80,97,0.54,light rain,0.12,0.0
Pueblo Nuevo,MX,2020-05-10 23:31:17,23.38,-105.38,75.65,22,0,7.02,clear sky,0.0,0.0
San Miguel El Alto,MX,2020-05-10 23:31:17,21.02,-102.35,80.35,17,43,7.7,scattered clouds,0.0,0.0
Galveston,US,2020-05-10 23:31:17,29.37,-94.97,80.01,60,1,10.29,clear sky,0.0,0.0
Marsa Matruh,EG,2020-05-10 23:31:17,31.35,27.25,60.8,82,0,5.41,clear sky,0.0,0.0
Big Spring,US,2020-05-10 23:31:17,32.25,-101.48,77.0,33,1,16.11,clear sky,0.0,0.0
Ponta Delgada,PT,2020-05-10 23:26:28,37.73,-25.67,59.0,72,20,11.41,few clouds,0.0,0.0
Purpe,RU,2020-05-10 23:31:18,64.48,76.69,41.0,83,99,2.93,overcast clouds,0.0,0.0
Sandnessjoen,NO,2020-05-10 23:30:56,66.02,12.63,32.0,90,99,5.82,light snow,0.0,0.33
Gat,IL,2020-05-10 23:30:01,31.61,34.76,64.0,73,0,2.82,clear sky,0.0,0.0
Sarankhola,BD,2020-05-10 23:31:18,22.31,89.79,80.4,81,1,2.73,clear sky,0.0,0.0
Ludvika,SE,2020-05-10 23:31:18,60.15,15.19,34.0,80,94,10.29,overcast clouds,0.0,0.0
Waynesville,US,2020-05-10 23:31:19,35.49,-82.99,60.01,21,0,4.0,clear sky,0.0,0.0
Dubbo,AU,2020-05-10 23:30:17,-32.25,148.62,46.4,75,0,12.75,clear sky,0.0,0.0
Ekhabi,RU,2020-05-10 23:31:19,53.51,142.97,51.48,61,100,10.49,overcast clouds,0.0,0.0
Bengkulu,ID,2020-05-10 23:31:19,-3.8,102.27,76.78,88,91,4.14,overcast clouds,0.0,0.0
Tiarei,PF,2020-05-10 23:26:47,-17.53,-149.33,89.6,62,50,4.7,scattered clouds,0.0,0.0
Tingo Maria,PE,2020-05-10 23:31:19,-9.29,-76.01,71.71,84,10,1.54,light rain,0.11,0.0
Larsnes,NO,2020-05-10 23:31:20,62.2,5.58,36.0,87,65,1.01,broken clouds,0.0,0.0
Shihezi,CN,2020-05-10 23:31:20,44.3,86.03,65.66,24,93,5.28,overcast clouds,0.0,0.0
Lavrentiya,RU,2020-05-10 23:31:20,65.58,-171.0,36.7,90,98,5.77,overcast clouds,0.0,0.0
Hegang,CN,2020-05-10 23:31:20,47.4,130.37,54.01,41,95,7.81,overcast clouds,0.0,0.0
San Quintin,MX,2020-05-10 23:31:20,30.48,-115.95,67.12,70,17,9.82,few clouds,0.0,0.0
Sorland,NO,2020-05-10 23:31:20,67.67,12.69,36.86,79,100,19.55,light snow,0.0,0.29
Farafangana,MG,2020-05-10 23:31:21,-22.82,47.83,70.18,74,98,5.14,overcast clouds,0.0,0.0
Beloha,MG,2020-05-10 23:31:21,-25.17,45.05,64.09,82,0,11.83,clear sky,0.0,0.0
Sudak,UA,2020-05-10 23:31:21,44.85,34.97,55.11,67,30,3.62,scattered clouds,0.0,0.0
Lucera,IT,2020-05-10 23:31:21,41.51,15.34,61.0,93,5,5.82,clear sky,0.0,0.0
Sao Filipe,CV,2020-05-10 23:31:21,14.9,-24.5,72.84,77,33,7.11,scattered clouds,0.0,0.0
Gombe,NG,2020-05-10 23:31:21,10.29,11.17,84.38,57,1,13.47,clear sky,0.0,0.0
Avera,US,2020-05-10 23:31:22,33.19,-82.53,75.2,31,1,5.82,clear sky,0.0,0.0
Harper,LR,2020-05-10 23:31:22,4.38,-7.72,81.72,82,98,11.45,overcast clouds,0.0,0.0
Sabha,LY,2020-05-10 23:31:22,27.04,14.43,81.32,15,27,11.12,scattered clouds,0.0,0.0
Riyadh,SA,2020-05-10 23:30:05,24.69,46.72,87.8,29,40,6.93,scattered clouds,0.0,0.0
Eyl,SO,2020-05-10 23:31:22,7.98,49.82,82.8,77,67,7.81,broken clouds,0.0,0.0
Canton,CN,2020-05-10 23:31:22,23.12,113.25,82.0,99,72,4.09,light rain,0.93,0.0
Ossora,RU,2020-05-10 23:31:22,59.24,163.07,34.27,92,99,1.05,overcast clouds,0.0,0.0
Miraflores,MX,2020-05-10 23:31:23,19.22,-98.81,75.2,27,75,12.75,moderate rain,0.0,0.0
Pimentel,PE,2020-05-10 23:31:23,-6.84,-79.93,68.59,83,35,12.03,scattered clouds,0.0,0.0
Bhaktapur,NP,2020-05-10 23:31:23,27.68,85.42,59.0,87,75,3.36,broken clouds,0.0,0.0
Seydisehir,TR,2020-05-10 23:31:23,37.42,31.85,51.22,60,50,0.76,scattered clouds,0.0,0.0
Skegness,GB,2020-05-10 23:31:23,53.14,0.34,44.01,70,54,11.99,broken clouds,0.0,0.0
Tawang,IN,2020-05-10 23:26:38,27.58,91.87,42.57,64,4,5.97,clear sky,0.0,0.0
Severo-Yeniseyskiy,RU,2020-05-10 23:31:24,60.37,93.04,50.83,64,85,5.75,light rain,0.39,0.0
Lima,PE,2020-05-10 23:31:25,-12.04,-77.03,71.6,68,26,14.99,scattered clouds,0.0,0.0
Macae,BR,2020-05-10 23:31:26,-22.37,-41.79,69.8,73,5,9.17,clear sky,0.0,0.0
Teguldet,RU,2020-05-10 23:31:27,57.31,88.17,61.47,61,97,2.73,overcast clouds,0.0,0.0
Chifeng,CN,2020-05-10 23:31:28,42.27,118.96,59.0,30,0,18.37,clear sky,0.0,0.0
Atasu,KZ,2020-05-10 23:31:29,48.68,71.64,57.18,72,77,0.96,broken clouds,0.0,0.0
Waipawa,NZ,2020-05-10 23:31:32,-41.41,175.52,64.4,63,92,14.99,overcast clouds,0.0,0.0
Hanting,CN,2020-05-10 23:31:33,36.77,119.21,67.17,38,43,8.86,scattered clouds,0.0,0.0
Ambilobe,MG,2020-05-10 23:31:34,-13.2,49.05,69.39,86,57,3.91,broken clouds,0.0,0.0
Miri,MY,2020-05-10 23:31:34,4.41,114.01,82.4,94,75,3.36,broken clouds,0.0,0.0
Belaya Gora,RU,2020-05-10 23:31:35,68.53,146.42,32.34,99,100,10.69,light snow,0.0,0.28
Gayny,RU,2020-05-10 23:31:35,60.31,54.32,49.32,94,82,5.28,broken clouds,0.0,0.0
Santiago Del Estero,AR,2020-05-10 23:31:35,-27.8,-64.26,68.43,74,0,1.77,clear sky,0.0,0.0
Hay River,CA,2020-05-10 23:31:35,60.82,-115.8,44.6,48,40,14.99,scattered clouds,0.0,0.0
Walvis Bay,NA,2020-05-10 23:31:35,-22.96,14.51,78.35,25,20,9.89,few clouds,0.0,0.0
Novorzhev,RU,2020-05-10 23:31:36,57.03,29.33,44.46,74,18,5.17,few clouds,0.0,0.0
Baragua,CU,2020-05-10 23:31:36,21.7,-78.63,81.63,72,100,7.11,overcast clouds,0.0,0.0
Moba,CN,2020-05-10 23:31:36,33.23,105.02,45.0,60,98,7.9,overcast clouds,0.0,0.0
Almaznyy,RU,2020-05-10 23:31:36,48.04,40.05,55.4,82,20,8.95,few clouds,0.0,0.0
Itarema,BR,2020-05-10 23:31:36,-2.92,-39.92,76.26,88,100,10.11,overcast clouds,0.0,0.0
Likhoslavl,RU,2020-05-10 23:31:36,57.13,35.46,40.62,75,1,4.25,clear sky,0.0,0.0
Mangrol,IN,2020-05-10 23:31:37,21.12,70.12,80.13,84,0,7.52,clear sky,0.0,0.0
Sivaki,RU,2020-05-10 23:31:37,52.63,126.75,45.32,54,19,12.26,few clouds,0.0,0.0
Codrington,AU,2020-05-10 23:31:37,-38.27,141.97,54.77,78,23,12.17,few clouds,0.0,0.0
Nuevo Progreso,MX,2020-05-10 23:31:37,23.17,-97.95,84.0,60,30,10.0,scattered clouds,0.0,0.0
Abasha,GE,2020-05-10 23:31:37,42.21,42.22,41.0,100,0,4.7,clear sky,0.0,0.0
Champerico,GT,2020-05-10 23:31:37,14.3,-91.92,91.4,66,20,11.41,thunderstorm,0.0,0.0
Lakes Entrance,AU,2020-05-10 23:31:37,-37.88,147.98,54.0,74,0,8.84,clear sky,0.0,0.0
Le Vauclin,MQ,2020-05-10 23:31:38,14.55,-60.84,80.6,74,40,12.75,scattered clouds,0.0,0.0
Ketchikan,US,2020-05-10 23:31:38,55.34,-131.65,71.6,19,1,18.34,clear sky,0.0,0.0
Kavaratti,IN,2020-05-10 23:31:38,10.57,72.64,85.03,77,96,10.49,overcast clouds,0.0,0.0
Pangkalanbuun,ID,2020-05-10 23:31:38,-2.68,111.62,79.88,86,46,2.93,scattered clouds,0.0,0.0
Tambura,SS,2020-05-10 23:31:38,5.6,27.47,70.25,93,57,1.97,light rain,0.49,0.0
Kambove,CD,2020-05-10 23:31:38,-10.88,26.6,55.94,91,1,6.85,clear sky,0.0,0.0
Maniitsoq,GL,2020-05-10 23:30:09,65.42,-52.9,42.35,77,100,17.58,overcast clouds,0.0,0.0
Kurumkan,RU,2020-05-10 23:31:39,54.3,110.3,40.19,65,0,6.69,clear sky,0.0,0.0
Liverpool,GB,2020-05-10 23:31:39,53.41,-2.98,41.0,65,4,12.75,clear sky,0.0,0.0
Coquimbo,CL,2020-05-10 23:30:15,-29.95,-71.34,55.4,87,0,5.82,clear sky,0.0,0.0
Hillerod,DK,2020-05-10 23:30:09,55.93,12.31,46.99,77,99,1.99,overcast clouds,0.0,0.0
Athens,GR,2020-05-10 23:29:41,37.98,23.72,68.0,59,96,1.5,overcast clouds,0.0,0.0
Iralaya,HN,2020-05-10 23:31:40,15.0,-83.23,84.2,79,75,8.05,broken clouds,0.0,0.0
Aksu,CN,2020-05-10 23:31:40,41.12,80.26,61.3,49,87,5.86,overcast clouds,0.0,0.0
Kapuskasing,CA,2020-05-10 23:31:40,49.42,-82.43,26.6,68,90,14.99,overcast clouds,0.0,0.0
Domoni,KM,2020-05-10 23:31:40,-12.26,44.53,77.61,79,6,2.33,light rain,0.11,0.0
Toamasina,MG,2020-05-10 23:31:40,-18.17,49.38,70.56,90,99,11.03,light rain,0.16,0.0
Bowen,AU,2020-05-10 23:31:40,-20.02,148.23,75.99,73,1,6.93,clear sky,0.0,0.0
Dongsheng,CN,2020-05-10 23:31:41,39.82,109.98,50.38,37,0,25.75,clear sky,0.0,0.0
Umtata,ZA,2020-05-10 23:31:41,-31.59,28.78,51.8,81,0,1.12,clear sky,0.0,0.0
Fairbanks,US,2020-05-10 23:30:41,64.84,-147.72,82.99,18,1,14.99,clear sky,0.0,0.0
Vao,NC,2020-05-10 23:30:26,-22.67,167.48,71.71,64,94,6.42,overcast clouds,0.0,0.0
Zyryanka,RU,2020-05-10 23:31:41,65.75,150.85,31.87,99,100,17.07,light snow,0.0,0.27
Yatou,CN,2020-05-10 23:31:41,37.15,122.38,62.73,49,10,11.5,clear sky,0.0,0.0
Snezhnogorsk,RU,2020-05-10 23:31:42,69.19,33.25,32.0,99,75,15.66,shower snow,0.0,0.0
Panjab,AF,2020-05-10 23:31:42,34.39,67.02,53.33,42,97,3.8,overcast clouds,0.0,0.0
Northam,GB,2020-05-10 23:31:42,51.03,-4.22,46.0,69,70,18.01,broken clouds,0.0,0.0
Severobaykalsk,RU,2020-05-10 23:31:42,55.65,109.32,34.77,82,0,7.05,clear sky,0.0,0.0
Roma,US,2020-05-10 23:31:42,43.21,-75.46,44.6,81,90,8.05,overcast clouds,0.0,0.0
Claveria,PH,2020-05-10 23:31:42,18.61,121.08,85.06,66,0,6.04,clear sky,0.0,0.0
Dakar,SN,2020-05-10 23:31:18,14.69,-17.44,69.8,94,85,4.7,overcast clouds,0.0,0.0
Paragominas,BR,2020-05-10 23:31:43,-2.97,-47.48,74.01,97,51,3.22,broken clouds,0.0,0.0
Nata,PA,2020-05-10 23:31:43,8.33,-80.52,81.0,52,100,0.18,light rain,0.17,0.0
Shibetsu,JP,2020-05-10 23:31:43,43.66,145.13,53.01,79,44,9.62,scattered clouds,0.0,0.0
Boda,CF,2020-05-10 23:31:43,4.32,17.47,71.53,97,71,3.96,moderate rain,2.54,0.0
Ribeira Grande,PT,2020-05-10 23:31:43,38.52,-28.7,58.77,70,29,19.6,scattered clouds,0.0,0.0
Boyolangu,ID,2020-05-10 23:31:43,-8.12,111.89,76.59,92,95,2.37,moderate rain,2.34,0.0
Raychikhinsk,RU,2020-05-10 23:31:44,49.78,129.41,51.12,48,2,6.91,clear sky,0.0,0.0
Tres Picos,MX,2020-05-10 23:31:44,15.87,-93.53,91.38,48,3,3.94,clear sky,0.0,0.0
Jiwani,PK,2020-05-10 23:31:44,25.05,61.74,82.87,75,17,12.44,few clouds,0.0,0.0
Batsfjord,NO,2020-05-10 23:31:44,70.63,29.72,33.8,91,90,20.8,light snow,0.0,0.0
Kavieng,PG,2020-05-10 23:31:44,-2.57,150.8,86.13,73,30,11.14,scattered clouds,0.0,0.0
Carballo,ES,2020-05-10 23:30:26,43.21,-8.69,52.0,87,9,1.01,clear sky,0.0,0.0
Myingyan,MM,2020-05-10 23:31:44,21.47,95.38,82.4,69,20,3.36,few clouds,0.0,0.0
Ciranjang,ID,2020-05-10 23:31:45,-6.79,107.28,72.0,100,62,1.74,light rain,0.14,0.0
Terra Nova,BR,2020-05-10 23:31:45,-12.37,-40.67,69.8,88,90,2.24,overcast clouds,0.0,0.0
Saint-Pierre,RE,2020-05-10 23:30:24,-21.34,55.48,69.8,73,75,6.93,broken clouds,0.0,0.0
Lompoc,US,2020-05-10 23:31:45,34.64,-120.46,61.0,87,90,4.7,overcast clouds,0.0,0.0
Nuuk,GL,2020-05-10 23:31:45,64.18,-51.72,44.6,65,92,3.36,overcast clouds,0.0,0.0
Eresos,GR,2020-05-10 23:31:45,39.17,25.93,62.6,59,100,6.51,overcast clouds,0.0,0.0
Le Port,RE,2020-05-10 23:31:45,-20.94,55.29,64.4,77,93,6.93,overcast clouds,0.0,0.0
Tishchenskoye,RU,2020-05-10 23:31:46,45.46,41.67,48.2,57,28,15.66,scattered clouds,0.0,0.0
Akyab,MM,2020-05-10 23:31:46,20.15,92.9,81.34,73,0,4.25,clear sky,0.0,0.0
Sechura,PE,2020-05-10 23:31:46,-5.56,-80.82,74.97,68,46,16.4,scattered clouds,0.0,0.0
Mongo,TD,2020-05-10 23:31:46,12.18,18.69,88.02,33,15,3.96,few clouds,0.0,0.0
La Palma,US,2020-05-10 23:31:46,33.85,-118.05,79.0,57,20,9.17,few clouds,0.0,0.0
Sawtell,AU,2020-05-10 23:31:46,-30.38,153.1,62.6,45,23,13.87,few clouds,0.0,0.0
Kerman,IR,2020-05-10 23:31:47,30.28,57.08,62.6,45,20,6.93,few clouds,0.0,0.0
Juarez,MX,2020-05-10 23:30:10,31.73,-106.48,86.0,17,40,11.41,scattered clouds,0.0,0.0
Kapit,MY,2020-05-10 23:31:47,2.02,112.93,78.15,93,99,0.6,light rain,0.49,0.0
Nishihara,JP,2020-05-10 23:31:47,26.18,127.76,75.2,94,90,4.7,overcast clouds,0.0,0.0
Pozhva,RU,2020-05-10 23:31:47,59.09,56.08,49.03,90,97,4.27,overcast clouds,0.0,0.0
Mount Gambier,AU,2020-05-10 23:31:47,-37.83,140.77,48.2,93,20,11.41,few clouds,0.0,0.0
Fortuna,US,2020-05-10 23:31:48,40.6,-124.16,64.99,77,1,13.87,clear sky,0.0,0.0
Taltal,CL,2020-05-10 23:31:48,-25.4,-70.48,58.86,78,29,4.52,scattered clouds,0.0,0.0
Luoyang,CN,2020-05-10 23:29:21,34.68,112.45,69.01,99,67,5.99,broken clouds,0.0,0.0
Kupang,ID,2020-05-10 23:28:08,-10.17,123.58,78.8,78,20,8.05,few clouds,0.0,0.0
Dudinka,RU,2020-05-10 23:31:48,69.41,86.18,28.4,86,56,6.71,broken clouds,0.0,0.0
Cidreira,BR,2020-05-10 23:27:54,-30.18,-50.21,66.49,70,100,11.45,overcast clouds,0.0,0.0
Swanton,US,2020-05-10 23:31:48,41.59,-83.89,50.0,81,90,10.29,moderate rain,3.05,0.0
Port Hardy,CA,2020-05-10 23:31:49,50.7,-127.42,73.4,33,40,3.36,scattered clouds,0.0,0.0
Omsukchan,RU,2020-05-10 23:31:49,62.53,155.8,33.08,94,99,2.46,light snow,0.0,0.23
Luderitz,NA,2020-05-10 23:31:49,-26.65,15.16,73.4,31,0,4.7,clear sky,0.0,0.0
Haines Junction,CA,2020-05-10 23:31:49,60.75,-137.51,66.49,30,0,4.32,clear sky,0.0,0.0
Nyurba,RU,2020-05-10 23:31:49,63.28,118.33,40.62,65,8,7.85,clear sky,0.0,0.0
Tazovskiy,RU,2020-05-10 23:31:49,67.47,78.7,32.09,99,100,13.96,overcast clouds,0.0,0.0
Khor,RU,2020-05-10 23:31:50,47.89,134.95,48.24,96,82,4.65,light rain,0.57,0.0
Ampanihy,MG,2020-05-10 23:31:50,-24.7,44.75,61.2,87,0,7.61,clear sky,0.0,0.0
Alekseyevsk,RU,2020-05-10 23:31:50,57.84,108.35,38.39,70,25,8.37,scattered clouds,0.0,0.0
Ucluelet,CA,2020-05-10 23:30:17,48.93,-125.55,75.0,49,40,5.82,scattered clouds,0.0,0.0
Cabedelo,BR,2020-05-10 23:31:50,-6.98,-34.83,77.0,94,20,5.82,few clouds,0.0,0.0
Kotelnich,RU,2020-05-10 23:31:50,58.31,48.35,47.12,95,0,4.79,clear sky,0.0,0.0
Ulaangom,MN,2020-05-10 23:31:51,49.98,92.07,54.97,37,0,0.45,clear sky,0.0,0.0
Halifax,CA,2020-05-10 23:28:04,44.65,-63.57,44.01,45,67,3.0,broken clouds,0.0,0.0
Dixon,US,2020-05-10 23:31:51,38.45,-121.82,82.4,32,1,10.29,clear sky,0.0,0.0
Arman,RU,2020-05-10 23:31:51,59.7,150.17,44.04,59,95,6.44,overcast clouds,0.0,0.0
Soyo,AO,2020-05-10 23:31:51,-6.13,12.37,78.46,85,96,5.77,overcast clouds,0.0,0.0
Camacha,PT,2020-05-10 23:31:51,33.08,-16.33,66.2,82,40,19.46,scattered clouds,0.0,0.0
Hami,CN,2020-05-10 23:31:52,42.8,93.45,62.33,25,0,4.68,clear sky,0.0,0.0
Vegueta,PE,2020-05-10 23:31:52,-11.02,-77.64,66.78,84,29,8.19,scattered clouds,0.0,0.0
Axim,GH,2020-05-10 23:31:52,4.87,-2.24,79.07,85,100,2.75,moderate rain,1.22,0.0
Mananjary,MG,2020-05-10 23:31:52,-21.22,48.33,70.56,88,91,6.8,moderate rain,1.17,0.0
Susehri,TR,2020-05-10 23:31:52,40.16,38.09,42.58,64,44,0.31,scattered clouds,0.0,0.0
Yining,CN,2020-05-10 23:31:52,29.04,114.56,72.23,72,18,1.01,few clouds,0.0,0.0
Caibarien,CU,2020-05-10 23:31:53,22.52,-79.47,73.4,100,75,8.05,moderate rain,0.0,0.0
Grand Gaube,MU,2020-05-10 23:31:53,-20.01,57.66,66.99,70,66,1.99,broken clouds,0.0,0.0
Semirom,IR,2020-05-10 23:31:53,31.42,51.57,50.23,66,100,6.87,overcast clouds,0.0,0.0
Weinan,CN,2020-05-10 23:31:53,34.5,109.51,66.99,44,78,2.24,broken clouds,0.0,0.0
College,US,2020-05-10 23:31:53,64.86,-147.8,81.0,21,20,9.17,few clouds,0.0,0.0
Barra Patuca,HN,2020-05-10 23:31:53,15.8,-84.28,81.0,85,100,4.9,overcast clouds,0.0,0.0
Dolores,AR,2020-05-10 23:31:54,-36.31,-57.68,57.18,79,7,5.5,clear sky,0.0,0.0
Lorengau,PG,2020-05-10 23:31:54,-2.02,147.27,86.47,73,16,8.86,few clouds,0.0,0.0
Manokwari,ID,2020-05-10 23:31:54,-0.87,134.08,83.7,72,100,2.82,light rain,0.53,0.0
Yaan,NG,2020-05-10 23:31:54,7.38,8.57,75.7,89,27,6.55,scattered clouds,0.0,0.0
Yarada,IN,2020-05-10 23:28:14,17.65,83.27,80.6,94,20,2.24,mist,0.0,0.0
Saint-Francois,FR,2020-05-10 23:31:54,46.42,3.91,59.0,82,100,4.7,light rain,0.75,0.0
Deputatskiy,RU,2020-05-10 23:31:54,69.3,139.9,27.16,96,96,6.58,overcast clouds,0.0,0.0
Viransehir,TR,2020-05-10 23:31:54,37.24,39.76,54.7,44,0,10.94,clear sky,0.0,0.0
Sidrolandia,BR,2020-05-10 23:29:43,-20.93,-54.96,71.6,60,0,6.93,clear sky,0.0,0.0
La Asuncion,VE,2020-05-10 23:27:46,11.03,-63.86,93.2,52,44,25.28,scattered clouds,0.0,0.0
Lingao,CN,2020-05-10 23:31:55,19.91,109.69,83.44,69,67,3.78,broken clouds,0.0,0.0
Banff,CA,2020-05-10 23:30:03,51.18,-115.57,39.0,72,100,7.0,light snow,0.0,0.34
Asau,RO,2020-05-10 23:31:55,46.43,26.4,54.0,69,98,4.99,overcast clouds,0.0,0.0
Yichang,CN,2020-05-10 23:31:55,30.71,111.28,73.89,58,36,4.79,scattered clouds,0.0,0.0
Chitral,PK,2020-05-10 23:30:21,35.85,71.79,60.04,34,78,1.45,broken clouds,0.0,0.0
Andra,RU,2020-05-10 23:31:56,62.51,65.89,56.44,63,35,5.28,scattered clouds,0.0,0.0
Hegra,NO,2020-05-10 23:31:56,63.46,11.11,33.8,80,97,12.75,light snow,0.0,0.19
Okhotsk,RU,2020-05-10 23:31:56,59.38,143.3,43.56,62,86,9.01,overcast clouds,0.0,0.0
Kyshtovka,RU,2020-05-10 23:31:56,56.55,76.63,60.53,66,0,4.76,clear sky,0.0,0.0
Vila Franca Do Campo,PT,2020-05-10 23:31:53,37.72,-25.43,59.0,72,20,11.41,few clouds,0.0,0.0
Banjar,ID,2020-05-10 23:31:57,-8.19,114.97,77.0,100,20,4.7,few clouds,0.0,0.0
Kahului,US,2020-05-10 23:31:57,20.89,-156.47,84.2,54,20,19.46,few clouds,0.0,0.0
Pyapon,MM,2020-05-10 23:31:57,16.28,95.68,83.59,74,55,3.47,broken clouds,0.0,0.0
Santa Isabel Do Rio Negro,BR,2020-05-10 23:31:57,-0.41,-65.02,75.22,97,95,1.77,overcast clouds,0.0,0.0
San Juan,AR,2020-05-10 23:28:14,-31.54,-68.54,66.27,42,0,15.05,clear sky,0.0,0.0
Shaowu,CN,2020-05-10 23:31:58,27.34,117.48,76.5,70,43,1.21,scattered clouds,0.0,0.0
Colac,AU,2020-05-10 23:31:58,-38.33,143.58,46.99,99,25,3.0,scattered clouds,0.0,0.0
Ovsyanka,RU,2020-05-10 23:31:58,55.96,92.55,46.4,87,64,2.24,broken clouds,0.0,0.0
Husavik,IS,2020-05-10 23:31:58,66.04,-17.34,42.8,48,20,31.09,few clouds,0.0,0.0
Lata,PT,2020-05-10 23:31:58,40.16,-8.33,59.0,89,95,8.01,light rain,0.49,0.0
Tromso,NO,2020-05-10 23:31:58,69.65,18.96,32.0,94,75,8.05,light shower snow,0.0,0.0
Ylojarvi,FI,2020-05-10 23:31:58,61.56,23.6,46.99,93,90,8.05,light intensity shower rain,0.0,0.0
Margate,GB,2020-05-10 23:30:47,51.38,1.39,46.99,61,84,11.01,broken clouds,0.0,0.0
Kachiry,KZ,2020-05-10 23:31:59,53.07,76.1,63.48,44,7,3.6,clear sky,0.0,0.0
Shimoda,JP,2020-05-10 23:31:59,34.67,138.95,69.8,83,75,18.34,broken clouds,0.0,0.0
Namibe,AO,2020-05-10 23:31:59,-15.2,12.15,78.3,56,16,4.05,few clouds,0.0,0.0
Guerrero Negro,MX,2020-05-10 23:31:59,27.98,-114.06,68.31,66,64,18.25,broken clouds,0.0,0.0
Neiafu,TO,2020-05-10 23:31:59,-18.65,-173.98,84.2,79,40,5.82,scattered clouds,0.0,0.0
Vagamo,NO,2020-05-10 23:31:59,61.88,9.1,22.12,87,14,7.85,few clouds,0.0,0.0
Tallahassee,US,2020-05-10 23:29:31,30.44,-84.28,81.0,39,20,4.7,few clouds,0.0,0.0
Jabinyanah,TN,2020-05-10 23:32:00,35.03,10.91,71.6,83,82,6.93,broken clouds,0.0,0.0
Yar-Sale,RU,2020-05-10 23:32:00,66.83,70.83,32.95,97,100,4.65,overcast clouds,0.0,0.0
Portland,US,2020-05-10 23:29:48,45.52,-122.68,87.01,22,90,17.22,overcast clouds,0.0,0.0
Marrakesh,MA,2020-05-10 23:27:31,31.63,-8.01,62.6,55,29,5.82,scattered clouds,0.0,0.0
Myitkyina,MM,2020-05-10 23:32:00,25.38,97.4,76.91,48,3,2.33,clear sky,0.0,0.0
Shambu,ET,2020-05-10 23:32:01,9.57,37.1,55.72,87,92,3.2,light rain,0.21,0.0
Pontianak,ID,2020-05-10 23:32:01,-0.03,109.33,77.0,94,75,3.36,thunderstorm,0.0,0.0
Pocerski Pricinovic,RS,2020-05-10 23:32:01,44.72,19.71,66.2,59,41,5.82,scattered clouds,0.0,0.0
Kulhudhuffushi,MV,2020-05-10 23:32:01,6.62,73.07,85.35,77,99,8.5,light rain,0.28,0.0
Simbahan,PH,2020-05-10 23:32:01,6.3,120.58,84.76,69,96,5.28,overcast clouds,0.0,0.0
Ahuimanu,US,2020-05-10 23:32:01,21.44,-157.84,89.6,46,20,13.87,few clouds,0.0,0.0
Praia,CV,2020-05-10 23:30:45,14.92,-23.51,73.4,73,20,17.22,few clouds,0.0,0.0
Bahia Honda,CU,2020-05-10 23:32:02,22.9,-83.16,76.41,84,100,8.37,moderate rain,1.51,0.0
Derzhavinsk,KZ,2020-05-10 23:32:02,51.1,66.32,62.58,67,0,6.08,clear sky,0.0,0.0
Kirkwood,US,2020-05-10 23:32:02,38.58,-90.41,57.99,39,80,11.88,broken clouds,0.0,0.0
Shumyachi,RU,2020-05-10 23:32:02,53.86,32.42,45.03,88,0,1.66,clear sky,0.0,0.0
Nabire,ID,2020-05-10 23:32:02,-3.37,135.48,78.78,88,100,1.21,light rain,0.13,0.0
Beinamar,TD,2020-05-10 23:32:03,8.67,15.38,83.44,53,15,5.23,few clouds,0.0,0.0
Sao Jose Da Coroa Grande,BR,2020-05-10 23:32:03,-8.9,-35.15,78.12,82,97,6.2,overcast clouds,0.0,0.0
Pareora,NZ,2020-05-10 23:32:03,-44.49,171.21,48.99,97,84,5.37,broken clouds,0.0,0.0
Kungurtug,RU,2020-05-10 23:32:03,50.6,97.52,49.33,48,51,0.22,broken clouds,0.0,0.0
Srednekolymsk,RU,2020-05-10 23:32:03,67.45,153.68,37.02,92,67,10.16,broken clouds,0.0,0.0
Umba,RU,2020-05-10 23:32:03,66.69,34.34,37.63,77,99,19.33,light rain,0.13,0.0
Mayo,US,2020-05-10 23:32:03,38.89,-76.51,61.0,62,1,13.87,clear sky,0.0,0.0
Olinda,BR,2020-05-10 23:29:12,-8.01,-34.86,82.4,69,40,9.17,scattered clouds,0.0,0.0
Ewa Beach,US,2020-05-10 23:32:04,21.32,-158.01,87.8,43,20,5.82,few clouds,0.0,0.0
Fernie,CA,2020-05-10 23:32:04,49.5,-115.07,55.4,60,90,5.82,shower rain,0.0,0.0
Sandwick,GB,2020-05-10 23:27:31,60.0,-1.25,35.6,80,83,10.29,broken clouds,0.0,0.0
Kabanjahe,ID,2020-05-10 23:32:04,3.1,98.49,78.8,100,40,2.24,mist,0.0,0.0
Katangli,RU,2020-05-10 23:32:04,51.71,143.23,45.72,64,100,7.63,overcast clouds,0.0,0.0
Raichur,IN,2020-05-10 23:32:04,16.2,77.37,82.74,40,36,1.3,scattered clouds,0.0,0.0
Senanga,ZM,2020-05-10 23:32:05,-16.12,23.27,59.13,62,55,4.36,broken clouds,0.0,0.0
Mizan Teferi,ET,2020-05-10 23:32:05,6.98,35.58,63.25,93,98,3.18,moderate rain,1.74,0.0
General Roca,AR,2020-05-10 23:32:05,-39.03,-67.58,59.0,38,2,16.11,clear sky,0.0,0.0
Mogyorod,HU,2020-05-10 23:32:05,47.6,19.24,61.0,71,48,2.24,scattered clouds,0.0,0.0
Cururupu,BR,2020-05-10 23:32:05,-1.83,-44.87,75.63,94,22,3.13,light rain,0.23,0.0
Solton,RU,2020-05-10 23:32:05,52.84,86.48,57.09,58,11,2.84,few clouds,0.0,0.0
Acapulco,MX,2020-05-10 23:32:06,16.86,-99.89,86.0,66,5,10.29,clear sky,0.0,0.0
Raudeberg,NO,2020-05-10 23:32:06,61.99,5.14,36.0,88,37,13.51,scattered clouds,0.0,0.0
Simi,SL,2020-05-10 23:32:06,9.57,-12.35,77.88,85,68,3.02,broken clouds,0.0,0.0
Angoche,MZ,2020-05-10 23:32:06,-16.23,39.91,71.62,90,25,10.02,light rain,0.17,0.0
Rio Negro,BR,2020-05-10 23:32:06,-26.11,-49.8,59.0,87,0,8.01,clear sky,0.0,0.0
Turbiv,UA,2020-05-10 23:32:06,49.35,28.72,51.01,81,5,6.71,clear sky,0.0,0.0
Camabatela,AO,2020-05-10 23:32:07,-8.19,15.38,64.8,87,100,1.79,light rain,0.14,0.0
Gillette,US,2020-05-10 23:31:47,44.29,-105.5,44.6,48,90,11.41,overcast clouds,0.0,0.0
Port-Gentil,GA,2020-05-10 23:32:07,-0.72,8.78,77.0,94,40,3.36,scattered clouds,0.0,0.0
Santa Cruz De La Palma,ES,2020-05-10 23:32:07,28.68,-17.76,69.8,73,7,13.87,clear sky,0.0,0.0
San Jose,US,2020-05-10 23:29:47,37.34,-121.89,77.0,40,20,12.75,few clouds,0.0,0.0
Roald,NO,2020-05-10 23:32:07,62.58,6.13,35.6,76,57,1.12,light rain,0.25,0.0
Kamloops,CA,2020-05-10 23:32:07,50.67,-120.32,77.0,20,40,6.93,scattered clouds,0.0,0.0
Octeville,FR,2020-05-10 23:32:08,49.63,-1.64,50.0,81,90,25.28,overcast clouds,0.0,0.0
Saint-Gilles,FR,2020-05-10 23:32:08,43.68,4.43,60.8,100,90,11.41,overcast clouds,0.0,0.0
Turinsk,RU,2020-05-10 23:32:08,58.05,63.7,56.1,92,95,1.48,overcast clouds,0.0,0.0
Churapcha,RU,2020-05-10 23:32:08,62.0,132.43,42.53,64,61,6.17,broken clouds,0.0,0.0
Sinnamary,GF,2020-05-10 23:32:08,5.38,-52.95,78.1,91,98,13.44,light rain,0.19,0.0
Fare,PF,2020-05-10 23:32:08,-16.7,-151.02,82.74,76,87,9.13,light rain,0.11,0.0
Saint-Georges,GD,2020-05-10 23:30:23,12.06,-61.75,82.4,74,20,11.41,few clouds,0.0,0.0
Muisne,EC,2020-05-10 23:32:09,0.6,-80.03,82.4,88,75,8.05,broken clouds,0.0,0.0
Grindavik,IS,2020-05-10 23:32:09,63.84,-22.43,42.8,75,75,14.99,broken clouds,0.0,0.0
Karamursel,TR,2020-05-10 23:32:09,40.69,29.62,63.0,63,97,4.7,overcast clouds,0.0,0.0
